year,origin_geoid,dest_geoid,flow,origin_name,dest_name,origin_name,origin_lon,origin_lat,dest_name,dest_lon,dest_lat
2020,53059,01065,303,Skamania,Hale,Skamania,-121.91465415895927,46.021822352030135,Hale,-87.6292308426273,32.76256749431152
2020,26089,01065,811,Leelanau,Hale,Leelanau,-85.81236946796268,44.939192965608136,Hale,-87.6292308426273,32.76256749431152
2020,04027,01065,68,Yuma,Hale,Yuma,-113.9058786280493,32.768860525592004,Hale,-87.6292308426273,32.76256749431152
2020,01133,34039,412,Winston,Union,Winston,-87.37337815841794,34.14969619943666,Union,-74.30725210791533,40.65952086187658
2020,09003,01133,113,Hartford,Winston,Hartford,-72.73285602355122,41.80623282519639,Winston,-87.37337815841794,34.14969619943666
2020,30061,01133,560,Mineral,Winston,Mineral,-114.99676896944874,47.146842942046064,Winston,-87.37337815841794,34.14969619943666
2020,01133,18171,746,Winston,Warren,Winston,-87.37337815841794,34.14969619943666,Warren,-87.3535931872836,40.34672520868343
2020,15007,01111,213,Kauai,Randolph,Kauai,-159.5959374081224,22.040022390610634,Randolph,-85.45915729360873,33.29353231369059
2020,01111,20025,106,Randolph,Clark,Randolph,-85.45915729360873,33.29353231369059,Clark,-99.82001265621741,37.23548182181783
2020,01111,33017,239,Randolph,Strafford,Randolph,-85.45915729360873,33.29353231369059,Strafford,-71.02846304520081,43.296524133566855
2020,01009,09009,85,Blount,New Haven,Blount,-86.56699351196858,33.98112926877265,New Haven,-72.93125232713736,41.41049533722678
2020,13119,01009,235,Franklin,Blount,Franklin,-83.22923543618779,34.375568482726145,Blount,-86.56699351196858,33.98112926877265
2020,01009,08057,262,Blount,Jackson,Blount,-86.56699351196858,33.98112926877265,Jackson,-106.3423583542447,40.66605901336306
2020,01077,04012,605,Lauderdale,La Paz,Lauderdale,-87.65409253918034,34.90168980070565,La Paz,-113.98243445342943,33.72882668287007
2020,20133,01077,173,Neosho,Lauderdale,Neosho,-95.30662006876831,37.55841218532179,Lauderdale,-87.65409253918034,34.90168980070565
2020,30035,01077,680,Glacier,Lauderdale,Glacier,-112.99423922372893,48.705139564895426,Lauderdale,-87.65409253918034,34.90168980070565
2020,40025,01077,307,Cimarron,Lauderdale,Cimarron,-102.51774206231133,36.74850097905363,Lauderdale,-87.65409253918034,34.90168980070565
2020,01071,15009,465,Jackson,Maui,Jackson,-85.99912742627913,34.77966544291074,Maui,-156.56851096169464,20.864514834678573
2020,01071,30055,157,Jackson,McCone,Jackson,-85.99912742627913,34.77966544291074,McCone,-105.79566594802182,47.64412276561406
2020,32021,01045,708,Mineral,Dale,Mineral,-118.43483404227322,38.538517166587035,Dale,-85.61099536402055,31.431662923464764
2020,37195,01045,774,Wilson,Dale,Wilson,-77.91899073504104,35.70521506977847,Dale,-85.61099536402055,31.431662923464764
2020,01045,37195,826,Dale,Wilson,Dale,-85.61099536402055,31.431662923464764,Wilson,-77.91899073504104,35.70521506977847
2020,27119,01123,852,Polk,Tallapoosa,Polk,-96.40090003796479,47.774156362702726,Tallapoosa,-85.79750063709672,32.86215811345257
2020,17101,01123,793,Lawrence,Tallapoosa,Lawrence,-87.72688218910757,38.72034198905096,Tallapoosa,-85.79750063709672,32.86215811345257
2020,37023,01123,575,Burke,Tallapoosa,Burke,-81.70498796353735,35.749487382409846,Tallapoosa,-85.79750063709672,32.86215811345257
2020,29163,01123,829,Pike,Tallapoosa,Pike,-91.1715982495675,39.343939939977254,Tallapoosa,-85.79750063709672,32.86215811345257
2020,01123,30089,980,Tallapoosa,Sanders,Tallapoosa,-85.79750063709672,32.86215811345257,Sanders,-115.13027615902004,47.6742445730813
2020,01005,28067,114,Barbour,Jones,Barbour,-85.39280997942588,31.869670932729008,Jones,-89.16892484922737,31.622554932863356
2020,01005,21165,567,Barbour,Menifee,Barbour,-85.39280997942588,31.869670932729008,Menifee,-83.5988885325422,37.941704173461325
2020,04005,01005,747,Coconino,Barbour,Coconino,-111.76879720112062,35.83557834211439,Barbour,-85.39280997942588,31.869670932729008
2020,01027,38045,600,Clay,LaMoure,Clay,-85.86079176452617,33.268841718306,LaMoure,-98.5355533262592,46.45704702451584
2020,01027,38077,331,Clay,Richland,Clay,-85.86079176452617,33.268841718306,Richland,-96.94801860264359,46.26402540810092
2020,06091,01027,204,Sierra,Clay,Sierra,-120.51626063456334,39.58048691920336,Clay,-85.86079176452617,33.268841718306
2020,19055,02068,921,Delaware,Denali,Delaware,-91.36658577932168,42.47137673339348,Denali,-150.02775492325534,63.67350135396497
2020,02068,33013,98,Denali,Merrimack,Denali,-150.02775492325534,63.67350135396497,Merrimack,-71.68005602555326,43.297313639239086
2020,02068,27031,599,Denali,Cook,Denali,-150.02775492325534,63.67350135396497,Cook,-90.53189866625839,47.90306070952713
2020,02198,42085,740,Prince of Wales-Hyder,Mercer,Prince of Wales-Hyder,-133.0422181146809,55.806754449684874,Mercer,-80.2581085537481,41.3021078843381
2020,02198,33019,875,Prince of Wales-Hyder,Sullivan,Prince of Wales-Hyder,-133.0422181146809,55.806754449684874,Sullivan,-72.22225923851728,43.36134955171138
2020,02198,49031,243,Prince of Wales-Hyder,Piute,Prince of Wales-Hyder,-133.0422181146809,55.806754449684874,Piute,-112.12779718196303,38.33626840043727
2020,28091,02198,102,Marion,Prince of Wales-Hyder,Marion,-89.82240958710204,31.230792868165477,Prince of Wales-Hyder,-133.0422181146809,55.806754449684874
2020,12085,02158,16,Martin,Kusilvak,Martin,-80.4315033021669,27.07752206606173,Kusilvak,-163.39652191982415,62.150674011714614
2020,02158,27167,15,Kusilvak,Wilkin,Kusilvak,-163.39652191982415,62.150674011714614,Wilkin,-96.46799829913833,46.35662260323354
2020,02158,56031,914,Kusilvak,Platte,Kusilvak,-163.39652191982415,62.150674011714614,Platte,-104.96614122174772,42.131318742456564
2020,02158,21113,419,Kusilvak,Jessamine,Kusilvak,-163.39652191982415,62.150674011714614,Jessamine,-84.58050539177297,37.87233383021258
2020,18171,02158,21,Warren,Kusilvak,Warren,-87.3535931872836,40.34672520868343,Kusilvak,-163.39652191982415,62.150674011714614
2020,54025,02013,414,Greenbrier,Aleutians East,Greenbrier,-80.45280133339375,37.94697489348364,Aleutians East,-161.99884342554853,55.35973264818836
2020,60040,02013,856,Swains Island,Aleutians East,Swains Island,-171.07810943815284,-11.054930695845055,Aleutians East,-161.99884342554853,55.35973264818836
2020,02013,09013,753,Aleutians East,Tolland,Aleutians East,-161.99884342554853,55.35973264818836,Tolland,-72.33656030126635,41.85526792888117
2020,29073,02013,937,Gasconade,Aleutians East,Gasconade,-91.50785641943682,38.44039851421879,Aleutians East,-161.99884342554853,55.35973264818836
2020,02013,27119,856,Aleutians East,Polk,Aleutians East,-161.99884342554853,55.35973264818836,Polk,-96.40090003796479,47.774156362702726
2020,02130,78010,979,Ketchikan Gateway,St. Croix,Ketchikan Gateway,-130.93500651879646,55.58316884600228,St. Croix,-64.76358861483993,17.73350688618407
2020,02130,41011,296,Ketchikan Gateway,Coos,Ketchikan Gateway,-130.93500651879646,55.58316884600228,Coos,-124.0593895053673,43.17357187219154
2020,02130,22083,665,Ketchikan Gateway,Richland,Ketchikan Gateway,-130.93500651879646,55.58316884600228,Richland,-91.76368519484558,32.417305051803666
2020,02130,45033,604,Ketchikan Gateway,Dillon,Ketchikan Gateway,-130.93500651879646,55.58316884600228,Dillon,-79.37850730207529,34.39151713324067
2020,33019,02230,288,Sullivan,Skagway,Sullivan,-72.22225923851728,43.36134955171138,Skagway,-135.3354217944976,59.558938749256086
2020,02230,19155,482,Skagway,Pottawattamie,Skagway,-135.3354217944976,59.558938749256086,Pottawattamie,-95.54287504854898,41.33666368888495
2020,40059,02230,191,Harper,Skagway,Harper,-99.66688462289684,36.78873837425841,Skagway,-135.3354217944976,59.558938749256086
2020,02230,32510,102,Skagway,Carson City,Skagway,-135.3354217944976,59.558938749256086,Carson City,-119.74704293643735,39.15140001087732
2020,02110,44009,29,Juneau,Washington,Juneau,-134.16947427250395,58.44729341723694,Washington,-71.62335721499157,41.469195809934135
2020,02110,28103,385,Juneau,Noxubee,Juneau,-134.16947427250395,58.44729341723694,Noxubee,-88.56980776150205,33.110203159683806
2020,40153,02110,68,Woodward,Juneau,Woodward,-99.26500172190863,36.422584056984505,Juneau,-134.16947427250395,58.44729341723694
2020,22085,02100,57,Sabine,Haines,Sabine,-93.55506686158097,31.56284593822014,Haines,-135.49671214734187,59.11597493494767
2020,02100,18137,222,Haines,Ripley,Haines,-135.49671214734187,59.11597493494767,Ripley,-85.26231494101481,39.103387197599645
2020,31089,02170,785,Holt,Matanuska-Susitna,Holt,-98.78361232481488,42.45517978425071,Matanuska-Susitna,-149.5871717729946,62.31418259615054
2020,47113,02170,428,Madison,Matanuska-Susitna,Madison,-88.83846645545393,35.60806397848116,Matanuska-Susitna,-149.5871717729946,62.31418259615054
2020,02170,29163,361,Matanuska-Susitna,Pike,Matanuska-Susitna,-149.5871717729946,62.31418259615054,Pike,-91.1715982495675,39.343939939977254
2020,33009,02170,925,Grafton,Matanuska-Susitna,Grafton,-71.82137472764217,43.93995015009994,Matanuska-Susitna,-149.5871717729946,62.31418259615054
2020,18081,02170,855,Johnson,Matanuska-Susitna,Johnson,-86.1017027123947,39.48991731857926,Matanuska-Susitna,-149.5871717729946,62.31418259615054
2020,05109,02188,165,Pike,Northwest Arctic,Pike,-93.65581404897605,34.16309345900677,Northwest Arctic,-159.73591489750007,67.04543797884406
2020,02188,23017,804,Northwest Arctic,Oxford,Northwest Arctic,-159.73591489750007,67.04543797884406,Oxford,-70.75596902836048,44.49726375345435
2020,02188,32007,946,Northwest Arctic,Elko,Northwest Arctic,-159.73591489750007,67.04543797884406,Elko,-115.35492973351626,41.14436676333232
2020,04021,31009,485,Pinal,Blaine,Pinal,-111.34461537869274,32.9050326466905,Blaine,-99.97676256704146,41.913227085844355
2020,40047,04021,925,Garfield,Pinal,Garfield,-97.78264406575005,36.379135509303794,Pinal,-111.34461537869274,32.9050326466905
2020,04021,55023,192,Pinal,Crawford,Pinal,-111.34461537869274,32.9050326466905,Crawford,-90.93081410150194,43.239577243257166
2020,22095,04023,229,St. John the Baptist,Santa Cruz,St. John the Baptist,-90.47120468578117,30.126501340295864,Santa Cruz,-110.84655928861139,31.526146734330556
2020,02130,04023,638,Ketchikan Gateway,Santa Cruz,Ketchikan Gateway,-130.93500651879646,55.58316884600228,Santa Cruz,-110.84655928861139,31.526146734330556
2020,04015,48471,914,Mohave,Walker,Mohave,-113.76237870282479,35.69846255611227,Walker,-95.57221481843452,30.738310440517203
2020,45023,04015,822,Chester,Mohave,Chester,-81.15940818202523,34.692197577311404,Mohave,-113.76237870282479,35.69846255611227
2020,32029,04015,173,Storey,Mohave,Storey,-119.52900807245707,39.446977042228355,Mohave,-113.76237870282479,35.69846255611227
2020,04013,24039,548,Maricopa,Somerset,Maricopa,-112.49279594891249,33.34841524888647,Somerset,-75.75903185586255,38.11353476270813
2020,04013,36061,288,Maricopa,New York,Maricopa,-112.49279594891249,33.34841524888647,New York,-73.97147606350285,40.772141576671615
2020,01027,04013,449,Clay,Maricopa,Clay,-85.86079176452617,33.268841718306,Maricopa,-112.49279594891249,33.34841524888647
2020,20125,04011,732,Montgomery,Greenlee,Montgomery,-95.74280940020164,37.192452970077476,Greenlee,-109.23987684909537,33.21405023689448
2020,04011,54069,222,Greenlee,Ohio,Greenlee,-109.23987684909537,33.21405023689448,Ohio,-80.6189674281752,40.0970829055421
2020,04011,27167,716,Greenlee,Wilkin,Greenlee,-109.23987684909537,33.21405023689448,Wilkin,-96.46799829913833,46.35662260323354
2020,04011,23027,667,Greenlee,Waldo,Greenlee,-109.23987684909537,33.21405023689448,Waldo,-69.14474978944266,44.500963566104396
2020,04011,08025,283,Greenlee,Crowley,Greenlee,-109.23987684909537,33.21405023689448,Crowley,-103.7841252411805,38.3268555586278
2020,13119,04027,83,Franklin,Yuma,Franklin,-83.22923543618779,34.375568482726145,Yuma,-113.9058786280493,32.768860525592004
2020,04027,20089,828,Yuma,Jewell,Yuma,-113.9058786280493,32.768860525592004,Jewell,-98.21822251045488,39.78462945423355
2020,53061,04005,404,Snohomish,Coconino,Snohomish,-121.69790284648604,48.0476205912406,Coconino,-111.76879720112062,35.83557834211439
2020,04005,51183,467,Coconino,Sussex,Coconino,-111.76879720112062,35.83557834211439,Sussex,-77.26210111047737,36.92181407506765
2020,04005,17081,214,Coconino,Jefferson,Coconino,-111.76879720112062,35.83557834211439,Jefferson,-88.92403212067855,38.30018094378283
2020,33017,04005,462,Strafford,Coconino,Strafford,-71.02846304520081,43.296524133566855,Coconino,-111.76879720112062,35.83557834211439
2020,04005,39047,579,Coconino,Fayette,Coconino,-111.76879720112062,35.83557834211439,Fayette,-83.45607786838684,39.56023358800491
2020,04012,20087,476,La Paz,Jefferson,La Paz,-113.98243445342943,33.72882668287007,Jefferson,-95.38335559299263,39.23587256439172
2020,04012,31125,597,La Paz,Nance,La Paz,-113.98243445342943,33.72882668287007,Nance,-97.99256776441175,41.39734121701924
2020,04012,23005,439,La Paz,Cumberland,La Paz,-113.98243445342943,33.72882668287007,Cumberland,-70.37564306210261,43.838201752740716
2020,32011,04009,396,Eureka,Graham,Eureka,-116.26821551099594,39.98081717377165,Graham,-109.88731148524339,32.9320055727723
2020,04009,56041,906,Graham,Uinta,Graham,-109.88731148524339,32.9320055727723,Uinta,-110.54731679281369,41.28765256184085
2020,04019,02013,470,Pima,Aleutians East,Pima,-111.78900792506285,32.09963140449597,Aleutians East,-161.99884342554853,55.35973264818836
2020,04019,32007,903,Pima,Elko,Pima,-111.78900792506285,32.09963140449597,Elko,-115.35492973351626,41.14436676333232
2020,05097,41019,662,Montgomery,Douglas,Montgomery,-93.65940449889061,34.53862602470782,Douglas,-123.16483617157353,43.27921572439261
2020,05097,29175,449,Montgomery,Randolph,Montgomery,-93.65940449889061,34.53862602470782,Randolph,-92.49701180378176,39.440096247950464
2020,05097,41061,873,Montgomery,Union,Montgomery,-93.65940449889061,34.53862602470782,Union,-118.00917545835038,45.30990263486621
2020,05109,27119,775,Pike,Polk,Pike,-93.65581404897605,34.16309345900677,Polk,-96.40090003796479,47.774156362702726
2020,55081,05109,66,Monroe,Pike,Monroe,-90.61784434919973,43.94565178264587,Pike,-93.65581404897605,34.16309345900677
2020,05109,39119,794,Pike,Muskingum,Pike,-93.65581404897605,34.16309345900677,Muskingum,-81.94448575388998,39.96585296816226
2020,02198,05109,334,Prince of Wales-Hyder,Pike,Prince of Wales-Hyder,-133.0422181146809,55.806754449684874,Pike,-93.65581404897605,34.16309345900677
2020,05007,02158,902,Benton,Kusilvak,Benton,-94.25639499389187,36.33885227067612,Kusilvak,-163.39652191982415,62.150674011714614
2020,05007,17013,544,Benton,Calhoun,Benton,-94.25639499389187,36.33885227067612,Calhoun,-90.66684003780543,39.16830186726861
2020,05007,45053,424,Benton,Jasper,Benton,-94.25639499389187,36.33885227067612,Jasper,-81.0317954707134,32.43608992348189
2020,05051,60010,990,Garland,Eastern,Garland,-93.15034615562548,34.57663442695199,Eastern,-170.6558017113858,-14.273624066906502
2020,04005,05051,370,Coconino,Garland,Coconino,-111.76879720112062,35.83557834211439,Garland,-93.15034615562548,34.57663442695199
2020,33003,05051,541,Carroll,Garland,Carroll,-71.20306855999226,43.87305228373985,Garland,-93.15034615562548,34.57663442695199
2020,05051,22053,220,Garland,Jefferson Davis,Garland,-93.15034615562548,34.57663442695199,Jefferson Davis,-92.81397862844867,30.268167381049533
2020,06063,05131,395,Plumas,Sebastian,Plumas,-120.83759057867526,40.004200573013115,Sebastian,-94.27440704362543,35.19978698828288
2020,38009,05131,531,Bottineau,Sebastian,Bottineau,-100.8332357318461,48.792367006470926,Sebastian,-94.27440704362543,35.19978698828288
2020,05019,55105,908,Clark,Rock,Clark,-93.17630905441564,34.050738848305464,Rock,-89.07192902103002,42.67115699771012
2020,05019,48125,29,Clark,Dickens,Clark,-93.17630905441564,34.050738848305464,Dickens,-100.77888588817505,33.616292691778966
2020,19055,05027,635,Delaware,Columbia,Delaware,-91.36658577932168,42.47137673339348,Columbia,-93.22724228098022,33.21405964702343
2020,05027,21039,729,Columbia,Carlisle,Columbia,-93.22724228098022,33.21405964702343,Carlisle,-88.97059541382639,36.853170397199186
2020,18027,05027,321,Daviess,Columbia,Daviess,-87.07254135739531,38.70241748542228,Columbia,-93.22724228098022,33.21405964702343
2020,05149,31061,127,Yell,Franklin,Yell,-93.41122923060183,35.00270051796916,Franklin,-98.95299492788317,40.17635865459031
2020,27057,05149,115,Hubbard,Yell,Hubbard,-94.91724334072313,47.10763860832731,Yell,-93.41122923060183,35.00270051796916
2020,05149,54051,875,Yell,Marshall,Yell,-93.41122923060183,35.00270051796916,Marshall,-80.6634290372671,39.86043668573332
2020,05149,60050,842,Yell,Western,Yell,-93.41122923060183,35.00270051796916,Western,-170.7694056687718,-14.324370825559253
2020,05101,37199,779,Newton,Yancey,Newton,-93.21787482919471,35.91983854237522,Yancey,-82.30791080189587,35.898329749162826
2020,05101,23005,606,Newton,Cumberland,Newton,-93.21787482919471,35.91983854237522,Cumberland,-70.37564306210261,43.838201752740716
2020,16075,05101,669,Payette,Newton,Payette,-116.76063623216737,44.00675590356988,Newton,-93.21787482919471,35.91983854237522
2020,05101,49049,673,Newton,Utah,Newton,-93.21787482919471,35.91983854237522,Utah,-111.66939912603038,40.119836935184715
2020,05035,26051,443,Crittenden,Gladwin,Crittenden,-90.30914856746537,35.20732135420088,Gladwin,-84.38860356420057,43.99059757242006
2020,30079,05035,765,Prairie,Crittenden,Prairie,-105.3767366762823,46.86052944398056,Crittenden,-90.30914856746537,35.20732135420088
2020,05035,54057,691,Crittenden,Mineral,Crittenden,-90.30914856746537,35.20732135420088,Mineral,-78.94409764905178,39.41444073190702
2020,05035,56031,941,Crittenden,Platte,Crittenden,-90.30914856746537,35.20732135420088,Platte,-104.96614122174772,42.131318742456564
2020,38021,06003,986,Dickey,Alpine,Dickey,-98.50484189869901,46.11033459535742,Alpine,-119.82055719058626,38.597143829713104
2020,06003,29033,770,Alpine,Carroll,Alpine,-119.82055719058626,38.597143829713104,Carroll,-93.50504584919015,39.42693629949317
2020,06003,55037,451,Alpine,Florence,Alpine,-119.82055719058626,38.597143829713104,Florence,-88.39754910865561,45.84812097526158
2020,06091,32031,82,Sierra,Washoe,Sierra,-120.51626063456334,39.58048691920336,Washoe,-119.66458033897543,40.65692051993312
2020,01123,06091,931,Tallapoosa,Sierra,Tallapoosa,-85.79750063709672,32.86215811345257,Sierra,-120.51626063456334,39.58048691920336
2020,06091,60040,574,Sierra,Swains Island,Sierra,-120.51626063456334,39.58048691920336,Swains Island,-171.07810943815284,-11.054930695845055
2020,06091,38077,830,Sierra,Richland,Sierra,-120.51626063456334,39.58048691920336,Richland,-96.94801860264359,46.26402540810092
2020,17111,06063,520,McHenry,Plumas,McHenry,-88.45239945015476,42.32435524084779,Plumas,-120.83759057867526,40.004200573013115
2020,06063,51680,467,Plumas,Lynchburg,Plumas,-120.83759057867526,40.004200573013115,Lynchburg,-79.19153995277749,37.40018204131167
2020,06087,04019,325,Santa Cruz,Pima,Santa Cruz,-122.00081915597906,37.05612640993531,Pima,-111.78900792506285,32.09963140449597
2020,06087,05101,189,Santa Cruz,Newton,Santa Cruz,-122.00081915597906,37.05612640993531,Newton,-93.21787482919471,35.91983854237522
2020,06087,33013,986,Santa Cruz,Merrimack,Santa Cruz,-122.00081915597906,37.05612640993531,Merrimack,-71.68005602555326,43.297313639239086
2020,06087,42073,820,Santa Cruz,Lawrence,Santa Cruz,-122.00081915597906,37.05612640993531,Lawrence,-80.33429121028698,40.99122879923204
2020,46035,06087,750,Davison,Santa Cruz,Davison,-98.14532919705924,43.67463040448306,Santa Cruz,-122.00081915597906,37.05612640993531
2020,06031,46029,556,Kings,Codington,Kings,-119.8159365440222,36.07498673037009,Codington,-97.18859246212708,44.977888231901346
2020,44001,06031,163,Bristol,Kings,Bristol,-71.28466502531475,41.71216975472687,Kings,-119.8159365440222,36.07498673037009
2020,72079,06031,660,Lajas,Kings,Lajas,-67.03993663379596,18.012082514582247,Kings,-119.8159365440222,36.07498673037009
2020,06031,27083,482,Kings,Lyon,Kings,-119.8159365440222,36.07498673037009,Lyon,-95.83860609273371,44.41360257489207
2020,06065,41013,570,Riverside,Crook,Riverside,-115.99399793496006,33.746545351999664,Crook,-120.3556222812327,44.14211057994374
2020,32031,06065,695,Washoe,Riverside,Washoe,-119.66458033897543,40.65692051993312,Riverside,-115.99399793496006,33.746545351999664
2020,06101,18165,32,Sutter,Vermillion,Sutter,-121.69443141095945,39.03430282373134,Vermillion,-87.46408439179048,39.853890541760926
2020,06101,38023,119,Sutter,Divide,Sutter,-121.69443141095945,39.03430282373134,Divide,-103.48720362452089,48.81518285447778
2020,09001,06101,998,Fairfield,Sutter,Fairfield,-73.38917448601833,41.269593584196606,Sutter,-121.69443141095945,39.03430282373134
2020,06101,54025,388,Sutter,Greenbrier,Sutter,-121.69443141095945,39.03430282373134,Greenbrier,-80.45280133339375,37.94697489348364
2020,16075,06101,347,Payette,Sutter,Payette,-116.76063623216737,44.00675590356988,Sutter,-121.69443141095945,39.03430282373134
2020,16005,06011,180,Bannock,Colusa,Bannock,-112.22398547703746,42.668126580784396,Colusa,-122.23726041341983,39.177567157138554
2020,06011,25015,505,Colusa,Hampshire,Colusa,-122.23726041341983,39.177567157138554,Hampshire,-72.66339306822168,42.340578674569116
2020,29201,06011,899,Scott,Colusa,Scott,-89.56857359981574,37.05277375113286,Colusa,-122.23726041341983,39.177567157138554
2020,06011,22125,636,Colusa,West Feliciana,Colusa,-122.23726041341983,39.177567157138554,West Feliciana,-91.42031978280559,30.88036225251477
2020,06051,34041,343,Mono,Warren,Mono,-118.88487056282457,37.93916211366691,Warren,-74.99743989067932,40.85686815447823
2020,06051,02013,361,Mono,Aleutians East,Mono,-118.88487056282457,37.93916211366691,Aleutians East,-161.99884342554853,55.35973264818836
2020,06089,51540,299,Shasta,Charlottesville,Shasta,-122.04131653401559,40.7638126840733,Charlottesville,-78.48425655100053,38.03777760714534
2020,06089,44005,449,Shasta,Newport,Shasta,-122.04131653401559,40.7638126840733,Newport,-71.23910304757796,41.55664754597437
2020,06089,78030,88,Shasta,St. Thomas,Shasta,-122.04131653401559,40.7638126840733,St. Thomas,-64.94020096858905,18.345238797008147
2020,23021,06089,408,Piscataquis,Shasta,Piscataquis,-69.28469617775112,45.8344497851719,Shasta,-122.04131653401559,40.7638126840733
2020,08123,33015,944,Weld,Rockingham,Weld,-104.39411430240123,40.55418014020019,Rockingham,-71.12567480003985,42.987427942067406
2020,04011,08123,526,Greenlee,Weld,Greenlee,-109.23987684909537,33.21405023689448,Weld,-104.39411430240123,40.55418014020019
2020,08025,06087,740,Crowley,Santa Cruz,Crowley,-103.7841252411805,38.3268555586278,Santa Cruz,-122.00081915597906,37.05612640993531
2020,08025,19173,622,Crowley,Taylor,Crowley,-103.7841252411805,38.3268555586278,Taylor,-94.69598428153004,40.7374817520847
2020,22053,08025,775,Jefferson Davis,Crowley,Jefferson Davis,-92.81397862844867,30.268167381049533,Crowley,-103.7841252411805,38.3268555586278
2020,08057,32021,144,Jackson,Mineral,Jackson,-106.3423583542447,40.66605901336306,Mineral,-118.43483404227322,38.538517166587035
2020,30099,08057,338,Teton,Jackson,Teton,-112.24020668352769,47.837189980415914,Jackson,-106.3423583542447,40.66605901336306
2020,55061,08057,588,Kewaunee,Jackson,Kewaunee,-87.61522514983237,44.51628244451795,Jackson,-106.3423583542447,40.66605901336306
2020,08057,38021,977,Jackson,Dickey,Jackson,-106.3423583542447,40.66605901336306,Dickey,-98.50484189869901,46.11033459535742
2020,01077,08057,779,Lauderdale,Jackson,Lauderdale,-87.65409253918034,34.90168980070565,Jackson,-106.3423583542447,40.66605901336306
2020,08047,34039,200,Gilpin,Union,Gilpin,-105.5220912807635,39.857199732606205,Union,-74.30725210791533,40.65952086187658
2020,49031,08047,257,Piute,Gilpin,Piute,-112.12779718196303,38.33626840043727,Gilpin,-105.5220912807635,39.857199732606205
2020,08047,18165,50,Gilpin,Vermillion,Gilpin,-105.5220912807635,39.857199732606205,Vermillion,-87.46408439179048,39.853890541760926
2020,08047,54003,343,Gilpin,Berkeley,Gilpin,-105.5220912807635,39.857199732606205,Berkeley,-78.02752670336244,39.4642362207712
2020,08047,16015,220,Gilpin,Boise,Gilpin,-105.5220912807635,39.857199732606205,Boise,-115.73214979549257,43.98888339077591
2020,27031,08099,698,Cook,Prowers,Cook,-90.53189866625839,47.90306070952713,Prowers,-102.39327620962126,37.95524734333617
2020,09009,08099,546,New Haven,Prowers,New Haven,-72.93125232713736,41.41049533722678,Prowers,-102.39327620962126,37.95524734333617
2020,39057,08099,127,Greene,Prowers,Greene,-83.88987521271011,39.69136147620356,Prowers,-102.39327620962126,37.95524734333617
2020,08099,46093,10,Prowers,Meade,Prowers,-102.39327620962126,37.95524734333617,Meade,-102.71839189085414,44.56695309263133
2020,35017,08099,889,Grant,Prowers,Grant,-108.3823778446009,32.73810355068962,Prowers,-102.39327620962126,37.95524734333617
2020,40075,08085,928,Kiowa,Montrose,Kiowa,-98.98043352375923,34.916300308675126,Montrose,-108.26943639137002,38.40326820678999
2020,22003,08085,927,Allen,Montrose,Allen,-92.82763309382538,30.653348764575462,Montrose,-108.26943639137002,38.40326820678999
2020,08085,09009,880,Montrose,New Haven,Montrose,-108.26943639137002,38.40326820678999,New Haven,-72.93125232713736,41.41049533722678
2020,08113,11001,120,San Miguel,District of Columbia,San Miguel,-108.40551197211639,38.004564072775985,District of Columbia,-77.01627680512767,38.904766096838976
2020,08113,13095,77,San Miguel,Dougherty,San Miguel,-108.40551197211639,38.004564072775985,Dougherty,-84.21714170650594,31.5333975794451
2020,08113,53067,502,San Miguel,Thurston,San Miguel,-108.40551197211639,38.004564072775985,Thurston,-122.8328662157293,46.92673045044802
2020,48329,08113,100,Midland,San Miguel,Midland,-102.0315607328274,31.86914038096837,San Miguel,-108.40551197211639,38.004564072775985
2020,55081,08063,463,Monroe,Kit Carson,Monroe,-90.61784434919973,43.94565178264587,Kit Carson,-102.60237646710698,39.305322883734235
2020,08063,55105,939,Kit Carson,Rock,Kit Carson,-102.60237646710698,39.305322883734235,Rock,-89.07192902103002,42.67115699771012
2020,08063,08113,329,Kit Carson,San Miguel,Kit Carson,-102.60237646710698,39.305322883734235,San Miguel,-108.40551197211639,38.004564072775985
2020,23017,08063,217,Oxford,Kit Carson,Oxford,-70.75596902836048,44.49726375345435,Kit Carson,-102.60237646710698,39.305322883734235
2020,08029,30035,471,Delta,Glacier,Delta,-107.86321647437914,38.861690797984444,Glacier,-112.99423922372893,48.705139564895426
2020,31169,08029,200,Thayer,Delta,Thayer,-97.59506166067902,40.1762070057522,Delta,-107.86321647437914,38.861690797984444
2020,12035,08029,787,Flagler,Delta,Flagler,-81.31351968342565,29.461474993433246,Delta,-107.86321647437914,38.861690797984444
2020,02198,08029,780,Prince of Wales-Hyder,Delta,Prince of Wales-Hyder,-133.0422181146809,55.806754449684874,Delta,-107.86321647437914,38.861690797984444
2020,08029,55023,316,Delta,Crawford,Delta,-107.86321647437914,38.861690797984444,Crawford,-90.93081410150194,43.239577243257166
2020,48061,08069,841,Cameron,Larimer,Cameron,-97.51386900964594,26.134369803148484,Larimer,-105.46096380095,40.66631722641838
2020,08069,36043,868,Larimer,Herkimer,Larimer,-105.46096380095,40.66631722641838,Herkimer,-74.96241287774869,43.41764659074515
2020,08069,21231,993,Larimer,Wayne,Larimer,-105.46096380095,40.66631722641838,Wayne,-84.82882086860575,36.80092732059142
2020,08069,25003,205,Larimer,Berkshire,Larimer,-105.46096380095,40.66631722641838,Berkshire,-73.2064881354839,42.37004205795067
2020,47157,09007,465,Shelby,Middlesex,Shelby,-89.89581674818713,35.1839520517135,Middlesex,-72.53429842397023,41.463775948834176
2020,42085,09007,118,Mercer,Middlesex,Mercer,-80.2581085537481,41.3021078843381,Middlesex,-72.53429842397023,41.463775948834176
2020,09007,21039,53,Middlesex,Carlisle,Middlesex,-72.53429842397023,41.463775948834176,Carlisle,-88.97059541382639,36.853170397199186
2020,09015,55105,147,Windham,Rock,Windham,-71.98752372942272,41.82986970515956,Rock,-89.07192902103002,42.67115699771012
2020,35049,09015,951,Santa Fe,Windham,Santa Fe,-105.97641890976487,35.50624282426362,Windham,-71.98752372942272,41.82986970515956
2020,30047,09013,138,Lake,Tolland,Lake,-114.08944795928954,47.64510972502037,Tolland,-72.33656030126635,41.85526792888117
2020,29175,09013,309,Randolph,Tolland,Randolph,-92.49701180378176,39.440096247950464,Tolland,-72.33656030126635,41.85526792888117
2020,09009,09013,504,New Haven,Tolland,New Haven,-72.93125232713736,41.41049533722678,Tolland,-72.33656030126635,41.85526792888117
2020,66010,09013,724,Guam,Tolland,Guam,144.77235111977853,13.44163173057397,Tolland,-72.33656030126635,41.85526792888117
2020,09011,31097,386,New London,Johnson,New London,-72.1018451132234,41.487023101068694,Johnson,-96.26522880570987,40.392644603640164
2020,06091,09011,298,Sierra,New London,Sierra,-120.51626063456334,39.58048691920336,New London,-72.1018451132234,41.487023101068694
2020,09011,10005,892,New London,Sussex,New London,-72.1018451132234,41.487023101068694,Sussex,-75.38993821323457,38.66074306842633
2020,09011,27077,106,New London,Lake of the Woods,New London,-72.1018451132234,41.487023101068694,Lake of the Woods,-94.90401236891512,48.769923544520886
2020,09005,24033,264,Litchfield,Prince George's,Litchfield,-73.24543845092172,41.792164727402,Prince George's,-76.8470323817263,38.829659000603
2020,32510,09005,596,Carson City,Litchfield,Carson City,-119.74704293643735,39.15140001087732,Litchfield,-73.24543845092172,41.792164727402
2020,09005,30079,17,Litchfield,Prairie,Litchfield,-73.24543845092172,41.792164727402,Prairie,-105.3767366762823,46.86052944398056
2020,54083,09005,745,Randolph,Litchfield,Randolph,-79.8760270539096,38.774860209766565,Litchfield,-73.24543845092172,41.792164727402
2020,29113,09005,151,Lincoln,Litchfield,Lincoln,-90.95985455272633,39.05821904394066,Litchfield,-73.24543845092172,41.792164727402
2020,09009,24039,63,New Haven,Somerset,New Haven,-72.93125232713736,41.41049533722678,Somerset,-75.75903185586255,38.11353476270813
2020,02013,09009,866,Aleutians East,New Haven,Aleutians East,-161.99884342554853,55.35973264818836,New Haven,-72.93125232713736,41.41049533722678
2020,49055,09009,537,Wayne,New Haven,Wayne,-110.9034872404254,38.32577588438474,New Haven,-72.93125232713736,41.41049533722678
2020,27077,09001,683,Lake of the Woods,Fairfield,Lake of the Woods,-94.90401236891512,48.769923544520886,Fairfield,-73.38917448601833,41.269593584196606
2020,09001,54087,508,Fairfield,Roane,Fairfield,-73.38917448601833,41.269593584196606,Roane,-81.34836850637109,38.71405660347242
2020,09001,31061,680,Fairfield,Franklin,Fairfield,-73.38917448601833,41.269593584196606,Franklin,-98.95299492788317,40.17635865459031
2020,15001,09001,779,Hawaii,Fairfield,Hawaii,-155.52110283184192,19.601314425277035,Fairfield,-73.38917448601833,41.269593584196606
2020,09001,02110,994,Fairfield,Juneau,Fairfield,-73.38917448601833,41.269593584196606,Juneau,-134.16947427250395,58.44729341723694
2020,16029,09003,985,Caribou,Hartford,Caribou,-111.56224855351668,42.77039807216403,Hartford,-72.73285602355122,41.80623282519639
2020,35023,09003,775,Hidalgo,Hartford,Hidalgo,-108.71399579780017,31.91284023290905,Hartford,-72.73285602355122,41.80623282519639
2020,10003,04005,309,New Castle,Coconino,New Castle,-75.64801066352037,39.580963234225166,Coconino,-111.76879720112062,35.83557834211439
2020,10003,12069,84,New Castle,Lake,New Castle,-75.64801066352037,39.580963234225166,Lake,-81.71151725976314,28.76119823884459
2020,10001,36025,705,Kent,Delaware,Kent,-75.56832219191644,39.0860007526349,Delaware,-74.96730996290506,42.19826767305531
2020,10001,50001,778,Kent,Addison,Kent,-75.56832219191644,39.0860007526349,Addison,-73.14047854909208,44.03102391150267
2020,10001,45083,414,Kent,Spartanburg,Kent,-75.56832219191644,39.0860007526349,Spartanburg,-81.99064632206351,34.931163359190855
2020,38023,10001,279,Divide,Kent,Divide,-103.48720362452089,48.81518285447778,Kent,-75.56832219191644,39.0860007526349
2020,10005,16017,770,Sussex,Bonner,Sussex,-75.38993821323457,38.66074306842633,Bonner,-116.60060274987919,48.29950623708488
2020,45053,10005,783,Jasper,Sussex,Jasper,-81.0317954707134,32.43608992348189,Sussex,-75.38993821323457,38.66074306842633
2020,54059,10005,258,Mingo,Sussex,Mingo,-82.13519036839423,37.72731763057834,Sussex,-75.38993821323457,38.66074306842633
2020,45069,11001,723,Marlboro,District of Columbia,Marlboro,-79.67850955754182,34.60190119860453,District of Columbia,-77.01627680512767,38.904766096838976
2020,11001,27001,383,District of Columbia,Aitkin,District of Columbia,-77.01627680512767,38.904766096838976,Aitkin,-93.41551321320848,46.6073425442495
2020,39119,12087,752,Muskingum,Monroe,Muskingum,-81.94448575388998,39.96585296816226,Monroe,-81.12130303782791,25.272297361811134
2020,12087,72079,541,Monroe,Lajas,Monroe,-81.12130303782791,25.272297361811134,Lajas,-67.03993663379596,18.012082514582247
2020,12087,36095,835,Monroe,Schoharie,Monroe,-81.12130303782791,25.272297361811134,Schoharie,-74.44198361512916,42.58799704427167
2020,22095,12077,929,St. John the Baptist,Liberty,St. John the Baptist,-90.47120468578117,30.126501340295864,Liberty,-84.88323202110661,30.241400507613992
2020,46121,12077,19,Todd,Liberty,Todd,-100.7186254088678,43.19368331544692,Liberty,-84.88323202110661,30.241400507613992
2020,13219,12117,692,Oconee,Seminole,Oconee,-83.43700290847683,33.835100916835,Seminole,-81.23635522003724,28.716901425356802
2020,23005,12117,51,Cumberland,Seminole,Cumberland,-70.37564306210261,43.838201752740716,Seminole,-81.23635522003724,28.716901425356802
2020,21189,12117,82,Owsley,Seminole,Owsley,-83.68315405676374,37.41973749533903,Seminole,-81.23635522003724,28.716901425356802
2020,08099,12117,828,Prowers,Seminole,Prowers,-102.39327620962126,37.95524734333617,Seminole,-81.23635522003724,28.716901425356802
2020,12117,32017,312,Seminole,Lincoln,Seminole,-81.23635522003724,28.716901425356802,Lincoln,-114.87894464985084,37.641829359427845
2020,09005,12069,634,Litchfield,Lake,Litchfield,-73.24543845092172,41.792164727402,Lake,-81.71151725976314,28.76119823884459
2020,12069,20001,276,Lake,Allen,Lake,-81.71151725976314,28.76119823884459,Allen,-95.30136841390983,37.88566932736498
2020,26127,12085,837,Oceana,Martin,Oceana,-86.26735575450391,43.640979453424904,Martin,-80.4315033021669,27.07752206606173
2020,12085,46063,223,Martin,Harding,Martin,-80.4315033021669,27.07752206606173,Harding,-103.49441625076504,45.579899702204116
2020,12085,17059,276,Martin,Gallatin,Martin,-80.4315033021669,27.07752206606173,Gallatin,-88.23079080731692,37.76240022167315
2020,21089,12035,683,Greenup,Flagler,Greenup,-82.92205692594636,38.54608717213083,Flagler,-81.31351968342565,29.461474993433246
2020,38071,12035,826,Ramsey,Flagler,Ramsey,-98.72005286244874,48.268948091418636,Flagler,-81.31351968342565,29.461474993433246
2020,12035,56025,677,Flagler,Natrona,Flagler,-81.31351968342565,29.461474993433246,Natrona,-106.79850107878765,42.961300473936355
2020,72017,12035,955,Barceloneta,Flagler,Barceloneta,-66.55921793613044,18.446423653224034,Flagler,-81.31351968342565,29.461474993433246
2020,55099,12041,761,Price,Gilchrist,Price,-90.36132673138296,45.68033332637476,Gilchrist,-82.80034332123974,29.725976735819437
2020,12041,32011,931,Gilchrist,Eureka,Gilchrist,-82.80034332123974,29.725976735819437,Eureka,-116.26821551099594,39.98081717377165
2020,06101,12041,314,Sutter,Gilchrist,Sutter,-121.69443141095945,39.03430282373134,Gilchrist,-82.80034332123974,29.725976735819437
2020,12041,39143,853,Gilchrist,Sandusky,Gilchrist,-82.80034332123974,29.725976735819437,Sandusky,-83.14403795726572,41.357358594889156
2020,21207,12041,840,Russell,Gilchrist,Russell,-85.05846187643317,36.99112558819273,Gilchrist,-82.80034332123974,29.725976735819437
2020,27133,12015,748,Rock,Charlotte,Rock,-96.2530916194641,43.67477517269659,Charlotte,-81.91191244622527,26.906033839592215
2020,28123,12015,367,Scott,Charlotte,Scott,-89.5377826515253,32.40662203077401,Charlotte,-81.91191244622527,26.906033839592215
2020,29113,12015,187,Lincoln,Charlotte,Lincoln,-90.95985455272633,39.05821904394066,Charlotte,-81.91191244622527,26.906033839592215
2020,37193,12015,979,Wilkes,Charlotte,Wilkes,-81.16373671466393,36.2058154647115,Charlotte,-81.91191244622527,26.906033839592215
2020,12095,50013,431,Orange,Grand Isle,Orange,-81.3235638924105,28.5145278243651,Grand Isle,-73.29458380510539,44.79696346772772
2020,12095,18137,645,Orange,Ripley,Orange,-81.3235638924105,28.5145278243651,Ripley,-85.26231494101481,39.103387197599645
2020,55023,12095,51,Crawford,Orange,Crawford,-90.93081410150194,43.239577243257166,Orange,-81.3235638924105,28.5145278243651
2020,12129,39143,353,Wakulla,Sandusky,Wakulla,-84.40017089969714,30.166097953761877,Sandusky,-83.14403795726572,41.357358594889156
2020,12129,05007,545,Wakulla,Benton,Wakulla,-84.40017089969714,30.166097953761877,Benton,-94.25639499389187,36.33885227067612
2020,15007,12129,228,Kauai,Wakulla,Kauai,-159.5959374081224,22.040022390610634,Wakulla,-84.40017089969714,30.166097953761877
2020,12129,20125,74,Wakulla,Montgomery,Wakulla,-84.40017089969714,30.166097953761877,Montgomery,-95.74280940020164,37.192452970077476
2020,33005,13227,468,Cheshire,Pickens,Cheshire,-72.25112995213253,42.919329314716066,Pickens,-84.46576918556103,34.4642097603184
2020,13227,18137,992,Pickens,Ripley,Pickens,-84.46576918556103,34.4642097603184,Ripley,-85.26231494101481,39.103387197599645
2020,13227,24047,800,Pickens,Worcester,Pickens,-84.46576918556103,34.4642097603184,Worcester,-75.33419337386391,38.212706732147524
2020,13227,39143,11,Pickens,Sandusky,Pickens,-84.46576918556103,34.4642097603184,Sandusky,-83.14403795726572,41.357358594889156
2020,13187,20209,495,Lumpkin,Wyandotte,Lumpkin,-84.00369146915506,34.57256244888859,Wyandotte,-94.76495645120758,39.11445395643336
2020,51181,13187,172,Surry,Lumpkin,Surry,-76.89973697237512,37.10957401386072,Lumpkin,-84.00369146915506,34.57256244888859
2020,13119,13227,499,Franklin,Pickens,Franklin,-83.22923543618779,34.375568482726145,Pickens,-84.46576918556103,34.4642097603184
2020,13119,72153,980,Franklin,Yauco,Franklin,-83.22923543618779,34.375568482726145,Yauco,-66.85803937179826,18.080315265833278
2020,13119,29175,11,Franklin,Randolph,Franklin,-83.22923543618779,34.375568482726145,Randolph,-92.49701180378176,39.440096247950464
2020,13119,23015,397,Franklin,Lincoln,Franklin,-83.22923543618779,34.375568482726145,Lincoln,-69.54230430729412,44.06292324884638
2020,13319,18165,939,Wilkinson,Vermillion,Wilkinson,-83.17083816171963,32.80271534918336,Vermillion,-87.46408439179048,39.853890541760926
2020,18137,13319,59,Ripley,Wilkinson,Ripley,-85.26231494101481,39.103387197599645,Wilkinson,-83.17083816171963,32.80271534918336
2020,13219,22001,853,Oconee,Acadia,Oconee,-83.43700290847683,33.835100916835,Acadia,-92.41188993043636,30.290231242989158
2020,13219,34041,897,Oconee,Warren,Oconee,-83.43700290847683,33.835100916835,Warren,-74.99743989067932,40.85686815447823
2020,13219,46031,594,Oconee,Corson,Oconee,-83.43700290847683,33.835100916835,Corson,-101.1967870103131,45.70912153965298
2020,13219,31061,581,Oconee,Franklin,Oconee,-83.43700290847683,33.835100916835,Franklin,-98.95299492788317,40.17635865459031
2020,13219,01077,554,Oconee,Lauderdale,Oconee,-83.43700290847683,33.835100916835,Lauderdale,-87.65409253918034,34.90168980070565
2020,78030,13247,391,St. Thomas,Rockdale,St. Thomas,-64.94020096858905,18.345238797008147,Rockdale,-84.02621947212877,33.65484555338087
2020,18093,13247,292,Lawrence,Rockdale,Lawrence,-86.48327069011117,38.84106138452681,Rockdale,-84.02621947212877,33.65484555338087
2020,24033,13247,894,Prince George's,Rockdale,Prince George's,-76.8470323817263,38.829659000603,Rockdale,-84.02621947212877,33.65484555338087
2020,13095,05019,202,Dougherty,Clark,Dougherty,-84.21714170650594,31.5333975794451,Clark,-93.17630905441564,34.050738848305464
2020,13095,55078,191,Dougherty,Menominee,Dougherty,-84.21714170650594,31.5333975794451,Menominee,-88.70945737829922,45.00426881864944
2020,34021,13095,589,Mercer,Dougherty,Mercer,-74.70194282384671,40.283083007703915,Dougherty,-84.21714170650594,31.5333975794451
2020,13095,47151,161,Dougherty,Scott,Dougherty,-84.21714170650594,31.5333975794451,Scott,-84.50364426172149,36.42876411708453
2020,13119,13095,992,Franklin,Dougherty,Franklin,-83.22923543618779,34.375568482726145,Dougherty,-84.21714170650594,31.5333975794451
2020,13215,24013,60,Muscogee,Carroll,Muscogee,-84.8763090338211,32.50993415476507,Carroll,-77.02265509631397,39.56281956531519
2020,13215,28067,427,Muscogee,Jones,Muscogee,-84.8763090338211,32.50993415476507,Jones,-89.16892484922737,31.622554932863356
2020,04005,13115,841,Coconino,Floyd,Coconino,-111.76879720112062,35.83557834211439,Floyd,-85.21450022736761,34.26301749522741
2020,38043,13115,45,Kidder,Floyd,Kidder,-99.7800313260977,46.97959621932272,Floyd,-85.21450022736761,34.26301749522741
2020,44005,13115,429,Newport,Floyd,Newport,-71.23910304757796,41.55664754597437,Floyd,-85.21450022736761,34.26301749522741
2020,13115,45073,893,Floyd,Oconee,Floyd,-85.21450022736761,34.26301749522741,Oconee,-83.06610787426526,34.75328863626428
2020,13115,30087,711,Floyd,Rosebud,Floyd,-85.21450022736761,34.26301749522741,Rosebud,-106.72798456613613,46.22661742992142
2020,34041,13085,925,Warren,Dawson,Warren,-74.99743989067932,40.85686815447823,Dawson,-84.17075165319172,34.444120150085396
2020,19083,13085,112,Hardin,Dawson,Hardin,-93.24034419102912,42.383870864068825,Dawson,-84.17075165319172,34.444120150085396
2020,16075,13085,445,Payette,Dawson,Payette,-116.76063623216737,44.00675590356988,Dawson,-84.17075165319172,34.444120150085396
2020,51183,13085,261,Sussex,Dawson,Sussex,-77.26210111047737,36.92181407506765,Dawson,-84.17075165319172,34.444120150085396
2020,17015,13085,47,Carroll,Dawson,Carroll,-89.93420168085572,42.068686173989924,Dawson,-84.17075165319172,34.444120150085396
2020,15003,31009,253,Honolulu,Blaine,Honolulu,-157.97458819627136,21.458851007021583,Blaine,-99.97676256704146,41.913227085844355
2020,15003,13095,972,Honolulu,Dougherty,Honolulu,-157.97458819627136,21.458851007021583,Dougherty,-84.21714170650594,31.5333975794451
2020,39047,15003,493,Fayette,Honolulu,Fayette,-83.45607786838684,39.56023358800491,Honolulu,-157.97458819627136,21.458851007021583
2020,22085,15005,98,Sabine,Kalawao,Sabine,-93.55506686158097,31.56284593822014,Kalawao,-156.9493794582276,21.172970106176326
2020,24031,15005,248,Montgomery,Kalawao,Montgomery,-77.20426126369082,39.136392483972784,Kalawao,-156.9493794582276,21.172970106176326
2020,15005,32007,458,Kalawao,Elko,Kalawao,-156.9493794582276,21.172970106176326,Elko,-115.35492973351626,41.14436676333232
2020,15005,18137,302,Kalawao,Ripley,Kalawao,-156.9493794582276,21.172970106176326,Ripley,-85.26231494101481,39.103387197599645
2020,29113,15005,234,Lincoln,Kalawao,Lincoln,-90.95985455272633,39.05821904394066,Kalawao,-156.9493794582276,21.172970106176326
2020,15007,42029,70,Kauai,Chester,Kauai,-159.5959374081224,22.040022390610634,Chester,-75.74890386001947,39.97297604313147
2020,23003,15007,12,Aroostook,Kauai,Aroostook,-68.59503111832905,46.65665034360294,Kauai,-159.5959374081224,22.040022390610634
2020,15009,39125,392,Maui,Paulding,Maui,-156.56851096169464,20.864514834678573,Paulding,-84.5801624653583,41.11680397332451
2020,17005,15009,816,Bond,Maui,Bond,-89.4356255594113,38.88686531216093,Maui,-156.56851096169464,20.864514834678573
2020,47137,15001,831,Pickett,Hawaii,Pickett,-85.07483792587409,36.55822880147269,Hawaii,-155.52110283184192,19.601314425277035
2020,18137,15001,217,Ripley,Hawaii,Ripley,-85.26231494101481,39.103387197599645,Hawaii,-155.52110283184192,19.601314425277035
2020,15001,05019,350,Hawaii,Clark,Hawaii,-155.52110283184192,19.601314425277035,Clark,-93.17630905441564,34.050738848305464
2020,15001,72101,282,Hawaii,Morovis,Hawaii,-155.52110283184192,19.601314425277035,Morovis,-66.42027692812601,18.317592287487923
2020,02110,16039,549,Juneau,Elmore,Juneau,-134.16947427250395,58.44729341723694,Elmore,-115.47003793530997,43.35248019911478
2020,16039,41037,809,Elmore,Lake,Elmore,-115.47003793530997,43.35248019911478,Lake,-120.38428879059761,42.79085403812822
2020,16039,34021,12,Elmore,Mercer,Elmore,-115.47003793530997,43.35248019911478,Mercer,-74.70194282384671,40.283083007703915
2020,33009,16039,596,Grafton,Elmore,Grafton,-71.82137472764217,43.93995015009994,Elmore,-115.47003793530997,43.35248019911478
2020,16075,51087,729,Payette,Henrico,Payette,-116.76063623216737,44.00675590356988,Henrico,-77.40597309346816,37.5382849968731
2020,20133,16075,105,Neosho,Payette,Neosho,-95.30662006876831,37.55841218532179,Payette,-116.76063623216737,44.00675590356988
2020,38021,16005,114,Dickey,Bannock,Dickey,-98.50484189869901,46.11033459535742,Bannock,-112.22398547703746,42.668126580784396
2020,46102,16005,64,Oglala Lakota,Bannock,Oglala Lakota,-102.55158465083967,43.335322171726425,Bannock,-112.22398547703746,42.668126580784396
2020,16015,51145,741,Boise,Powhatan,Boise,-115.73214979549257,43.98888339077591,Powhatan,-77.91512040690439,37.55041868846416
2020,30099,16015,922,Teton,Boise,Teton,-112.24020668352769,47.837189980415914,Boise,-115.73214979549257,43.98888339077591
2020,05035,16015,467,Crittenden,Boise,Crittenden,-90.30914856746537,35.20732135420088,Boise,-115.73214979549257,43.98888339077591
2020,42019,16015,150,Butler,Boise,Butler,-79.91319553197636,40.91162112444941,Boise,-115.73214979549257,43.98888339077591
2020,16031,08123,614,Cassia,Weld,Cassia,-113.60155532182321,42.28382464573275,Weld,-104.39411430240123,40.55418014020019
2020,16031,55037,259,Cassia,Florence,Cassia,-113.60155532182321,42.28382464573275,Florence,-88.39754910865561,45.84812097526158
2020,08085,16031,86,Montrose,Cassia,Montrose,-108.26943639137002,38.40326820678999,Cassia,-113.60155532182321,42.28382464573275
2020,17059,16029,516,Gallatin,Caribou,Gallatin,-88.23079080731692,37.76240022167315,Caribou,-111.56224855351668,42.77039807216403
2020,44005,16029,347,Newport,Caribou,Newport,-71.23910304757796,41.55664754597437,Caribou,-111.56224855351668,42.77039807216403
2020,16031,16085,565,Cassia,Valley,Cassia,-113.60155532182321,42.28382464573275,Valley,-115.56747337108727,44.76583481563635
2020,16085,08047,392,Valley,Gilpin,Valley,-115.56747337108727,44.76583481563635,Gilpin,-105.5220912807635,39.857199732606205
2020,51127,16085,927,New Kent,Valley,New Kent,-76.99751089361169,37.505777169453644,Valley,-115.56747337108727,44.76583481563635
2020,21113,16085,650,Jessamine,Valley,Jessamine,-84.58050539177297,37.87233383021258,Valley,-115.56747337108727,44.76583481563635
2020,16085,29225,662,Valley,Webster,Valley,-115.56747337108727,44.76583481563635,Webster,-92.87586279967692,37.28080830185269
2020,16027,72073,677,Canyon,Jayuya,Canyon,-116.70897010921871,43.624732555736216,Jayuya,-66.58808033750867,18.210517262753037
2020,38013,16027,937,Burke,Canyon,Burke,-102.51829751049091,48.790844725150826,Canyon,-116.70897010921871,43.624732555736216
2020,16017,20125,950,Bonner,Montgomery,Bonner,-116.60060274987919,48.29950623708488,Montgomery,-95.74280940020164,37.192452970077476
2020,12077,16017,629,Liberty,Bonner,Liberty,-84.88323202110661,30.241400507613992,Bonner,-116.60060274987919,48.29950623708488
2020,34025,16037,467,Monmouth,Custer,Monmouth,-74.22073691410634,40.2606381519362,Custer,-114.27984455791535,44.24097826226213
2020,16029,16037,977,Caribou,Custer,Caribou,-111.56224855351668,42.77039807216403,Custer,-114.27984455791535,44.24097826226213
2020,16037,30079,849,Custer,Prairie,Custer,-114.27984455791535,44.24097826226213,Prairie,-105.3767366762823,46.86052944398056
2020,16037,47089,679,Custer,Jefferson,Custer,-114.27984455791535,44.24097826226213,Jefferson,-83.44646248078911,36.05146940293891
2020,35005,17175,504,Chaves,Stark,Chaves,-104.46901069423896,33.36248346852581,Stark,-89.79760725240075,41.093277978812615
2020,22083,17175,763,Richland,Stark,Richland,-91.76368519484558,32.417305051803666,Stark,-89.79760725240075,41.093277978812615
2020,38051,17125,411,McIntosh,Mason,McIntosh,-99.44148481398365,46.11205939636887,Mason,-89.91691680628023,40.23935539846378
2020,17125,30057,524,Mason,Madison,Mason,-89.91691680628023,40.23935539846378,Madison,-111.91951039825204,45.299324757523365
2020,17163,17125,383,St. Clair,Mason,St. Clair,-89.92828104147665,38.47032720752541,Mason,-89.91691680628023,40.23935539846378
2020,17125,60030,573,Mason,Rose Island,Mason,-89.91691680628023,40.23935539846378,Rose Island,-168.15211317803295,-14.542123429984953
2020,32021,17163,139,Mineral,St. Clair,Mineral,-118.43483404227322,38.538517166587035,St. Clair,-89.92828104147665,38.47032720752541
2020,17163,44005,346,St. Clair,Newport,St. Clair,-89.92828104147665,38.47032720752541,Newport,-71.23910304757796,41.55664754597437
2020,54003,17013,929,Berkeley,Calhoun,Berkeley,-78.02752670336244,39.4642362207712,Calhoun,-90.66684003780543,39.16830186726861
2020,17013,17081,544,Calhoun,Jefferson,Calhoun,-90.66684003780543,39.16830186726861,Jefferson,-88.92403212067855,38.30018094378283
2020,40081,17013,421,Lincoln,Calhoun,Lincoln,-96.88125513496577,35.7026989020721,Calhoun,-90.66684003780543,39.16830186726861
2020,22001,17013,424,Acadia,Calhoun,Acadia,-92.41188993043636,30.290231242989158,Calhoun,-90.66684003780543,39.16830186726861
2020,20209,17059,56,Wyandotte,Gallatin,Wyandotte,-94.76495645120758,39.11445395643336,Gallatin,-88.23079080731692,37.76240022167315
2020,51181,17059,449,Surry,Gallatin,Surry,-76.89973697237512,37.10957401386072,Gallatin,-88.23079080731692,37.76240022167315
2020,17059,42019,193,Gallatin,Butler,Gallatin,-88.23079080731692,37.76240022167315,Butler,-79.91319553197636,40.91162112444941
2020,17059,50019,647,Gallatin,Orleans,Gallatin,-88.23079080731692,37.76240022167315,Orleans,-72.2435537229674,44.82879020889736
2020,20025,17059,125,Clark,Gallatin,Clark,-99.82001265621741,37.23548182181783,Gallatin,-88.23079080731692,37.76240022167315
2020,17111,40067,728,McHenry,Jefferson,McHenry,-88.45239945015476,42.32435524084779,Jefferson,-97.8360302002728,34.110536420355146
2020,01027,17111,720,Clay,McHenry,Clay,-85.86079176452617,33.268841718306,McHenry,-88.45239945015476,42.32435524084779
2020,17015,28099,54,Carroll,Neshoba,Carroll,-89.93420168085572,42.068686173989924,Neshoba,-89.117176470396,32.75378190362623
2020,47113,17015,765,Madison,Carroll,Madison,-88.83846645545393,35.60806397848116,Carroll,-89.93420168085572,42.068686173989924
2020,15009,17005,724,Maui,Bond,Maui,-156.56851096169464,20.864514834678573,Bond,-89.4356255594113,38.88686531216093
2020,17005,38005,59,Bond,Benson,Bond,-89.4356255594113,38.88686531216093,Benson,-99.36513056579683,48.06943529017974
2020,17005,27077,740,Bond,Lake of the Woods,Bond,-89.4356255594113,38.88686531216093,Lake of the Woods,-94.90401236891512,48.769923544520886
2020,56041,17081,505,Uinta,Jefferson,Uinta,-110.54731679281369,41.28765256184085,Jefferson,-88.92403212067855,38.30018094378283
2020,17081,37177,838,Jefferson,Tyrrell,Jefferson,-88.92403212067855,38.30018094378283,Tyrrell,-76.20784682159258,35.817602835136796
2020,17081,22125,58,Jefferson,West Feliciana,Jefferson,-88.92403212067855,38.30018094378283,West Feliciana,-91.42031978280559,30.88036225251477
2020,17081,32005,71,Jefferson,Douglas,Jefferson,-88.92403212067855,38.30018094378283,Douglas,-119.61636459706595,38.912067191087694
2020,17081,06087,94,Jefferson,Santa Cruz,Jefferson,-88.92403212067855,38.30018094378283,Santa Cruz,-122.00081915597906,37.05612640993531
2020,17125,17101,474,Mason,Lawrence,Mason,-89.91691680628023,40.23935539846378,Lawrence,-87.72688218910757,38.72034198905096
2020,17101,46029,965,Lawrence,Codington,Lawrence,-87.72688218910757,38.72034198905096,Codington,-97.18859246212708,44.977888231901346
2020,27083,17101,326,Lyon,Lawrence,Lyon,-95.83860609273371,44.41360257489207,Lawrence,-87.72688218910757,38.72034198905096
2020,17101,02170,807,Lawrence,Matanuska-Susitna,Lawrence,-87.72688218910757,38.72034198905096,Matanuska-Susitna,-149.5871717729946,62.31418259615054
2020,18165,45065,279,Vermillion,McCormick,Vermillion,-87.46408439179048,39.853890541760926,McCormick,-82.30929969870964,33.899501952881224
2020,18165,38009,90,Vermillion,Bottineau,Vermillion,-87.46408439179048,39.853890541760926,Bottineau,-100.8332357318461,48.792367006470926
2020,19083,18165,386,Hardin,Vermillion,Hardin,-93.24034419102912,42.383870864068825,Vermillion,-87.46408439179048,39.853890541760926
2020,08025,18165,589,Crowley,Vermillion,Crowley,-103.7841252411805,38.3268555586278,Vermillion,-87.46408439179048,39.853890541760926
2020,18165,54059,509,Vermillion,Mingo,Vermillion,-87.46408439179048,39.853890541760926,Mingo,-82.13519036839423,37.72731763057834
2020,48423,18093,796,Smith,Lawrence,Smith,-95.26905714880047,32.375283118841025,Lawrence,-86.48327069011117,38.84106138452681
2020,45083,18093,242,Spartanburg,Lawrence,Spartanburg,-81.99064632206351,34.931163359190855,Lawrence,-86.48327069011117,38.84106138452681
2020,29175,18093,21,Randolph,Lawrence,Randolph,-92.49701180378176,39.440096247950464,Lawrence,-86.48327069011117,38.84106138452681
2020,18171,02013,545,Warren,Aleutians East,Warren,-87.3535931872836,40.34672520868343,Aleutians East,-161.99884342554853,55.35973264818836
2020,18171,25027,761,Warren,Worcester,Warren,-87.3535931872836,40.34672520868343,Worcester,-71.90728421404546,42.35106933757326
2020,18171,49057,39,Warren,Weber,Warren,-87.3535931872836,40.34672520868343,Weber,-111.91394758983795,41.270030388140064
2020,35019,18081,387,Guadalupe,Johnson,Guadalupe,-104.79127939404079,34.86328573639159,Johnson,-86.1017027123947,39.48991731857926
2020,18081,29025,187,Johnson,Caldwell,Johnson,-86.1017027123947,39.48991731857926,Caldwell,-93.98311750807108,39.65578607629494
2020,18081,18093,102,Johnson,Lawrence,Johnson,-86.1017027123947,39.48991731857926,Lawrence,-86.48327069011117,38.84106138452681
2020,18137,13095,151,Ripley,Dougherty,Ripley,-85.26231494101481,39.103387197599645,Dougherty,-84.21714170650594,31.5333975794451
2020,18137,27017,321,Ripley,Carlton,Ripley,-85.26231494101481,39.103387197599645,Carlton,-92.67723251029935,46.59230447491479
2020,18137,18093,468,Ripley,Lawrence,Ripley,-85.26231494101481,39.103387197599645,Lawrence,-86.48327069011117,38.84106138452681
2020,51127,18137,400,New Kent,Ripley,New Kent,-76.99751089361169,37.505777169453644,Ripley,-85.26231494101481,39.103387197599645
2020,18049,23029,36,Fulton,Washington,Fulton,-86.26355763584499,41.04707070444363,Washington,-67.62874276326203,45.020292465950874
2020,55099,18049,673,Price,Fulton,Price,-90.36132673138296,45.68033332637476,Fulton,-86.26355763584499,41.04707070444363
2020,18049,29113,417,Fulton,Lincoln,Fulton,-86.26355763584499,41.04707070444363,Lincoln,-90.95985455272633,39.05821904394066
2020,30035,18167,109,Glacier,Vigo,Glacier,-112.99423922372893,48.705139564895426,Vigo,-87.38976355128645,39.43064694701896
2020,18167,56031,873,Vigo,Platte,Vigo,-87.38976355128645,39.43064694701896,Platte,-104.96614122174772,42.131318742456564
2020,18167,26051,507,Vigo,Gladwin,Vigo,-87.38976355128645,39.43064694701896,Gladwin,-84.38860356420057,43.99059757242006
2020,18027,16029,472,Daviess,Caribou,Daviess,-87.07254135739531,38.70241748542228,Caribou,-111.56224855351668,42.77039807216403
2020,55029,18027,247,Door,Daviess,Door,-87.31226580326769,44.949792767620444,Daviess,-87.07254135739531,38.70241748542228
2020,19189,18027,38,Winnebago,Daviess,Winnebago,-93.73411619736768,43.37756873560599,Daviess,-87.07254135739531,38.70241748542228
2020,18027,12041,470,Daviess,Gilchrist,Daviess,-87.07254135739531,38.70241748542228,Gilchrist,-82.80034332123974,29.725976735819437
2020,31089,18027,893,Holt,Daviess,Holt,-98.78361232481488,42.45517978425071,Daviess,-87.07254135739531,38.70241748542228
2020,18141,36001,298,St. Joseph,Albany,St. Joseph,-86.28990894913605,41.6166503374155,Albany,-73.97352435787782,42.600037311744664
2020,18141,01065,537,St. Joseph,Hale,St. Joseph,-86.28990894913605,41.6166503374155,Hale,-87.6292308426273,32.76256749431152
2020,18061,34025,262,Harrison,Monmouth,Harrison,-86.11141127976349,38.195031482820724,Monmouth,-74.22073691410634,40.2606381519362
2020,18061,60050,619,Harrison,Western,Harrison,-86.11141127976349,38.195031482820724,Western,-170.7694056687718,-14.324370825559253
2020,12041,18061,85,Gilchrist,Harrison,Gilchrist,-82.80034332123974,29.725976735819437,Harrison,-86.11141127976349,38.195031482820724
2020,18061,32510,265,Harrison,Carson City,Harrison,-86.11141127976349,38.195031482820724,Carson City,-119.74704293643735,39.15140001087732
2020,12077,18061,213,Liberty,Harrison,Liberty,-84.88323202110661,30.241400507613992,Harrison,-86.11141127976349,38.195031482820724
2020,19153,31043,34,Polk,Dakota,Polk,-93.57363043212635,41.68557348741017,Dakota,-96.56464203500984,42.391093878983376
2020,19153,47145,97,Polk,Roane,Polk,-93.57363043212635,41.68557348741017,Roane,-84.52301128451623,35.847678652623664
2020,41011,19017,668,Coos,Bremer,Coos,-124.0593895053673,43.17357187219154,Bremer,-92.3179837583039,42.77473206460112
2020,19017,32031,32,Bremer,Washoe,Bremer,-92.3179837583039,42.77473206460112,Washoe,-119.66458033897543,40.65692051993312
2020,09003,19017,838,Hartford,Bremer,Hartford,-72.73285602355122,41.80623282519639,Bremer,-92.3179837583039,42.77473206460112
2020,19149,55045,662,Plymouth,Green,Plymouth,-96.21416149008164,42.73789344280246,Green,-89.60214390024446,42.67990724270734
2020,19149,23019,170,Plymouth,Penobscot,Plymouth,-96.21416149008164,42.73789344280246,Penobscot,-68.65081864631128,45.39709984224713
2020,13085,19149,421,Dawson,Plymouth,Dawson,-84.17075165319172,34.444120150085396,Plymouth,-96.21416149008164,42.73789344280246
2020,51181,19149,406,Surry,Plymouth,Surry,-76.89973697237512,37.10957401386072,Plymouth,-96.21416149008164,42.73789344280246
2020,19149,18061,832,Plymouth,Harrison,Plymouth,-96.21416149008164,42.73789344280246,Harrison,-86.11141127976349,38.195031482820724
2020,19103,13215,708,Johnson,Muscogee,Johnson,-91.58678108511012,41.671262485330615,Muscogee,-84.8763090338211,32.50993415476507
2020,19103,42117,677,Johnson,Tioga,Johnson,-91.58678108511012,41.671262485330615,Tioga,-77.2543995567941,41.77284793511595
2020,47151,19103,616,Scott,Johnson,Scott,-84.50364426172149,36.42876411708453,Johnson,-91.58678108511012,41.671262485330615
2020,19103,33001,890,Johnson,Belknap,Johnson,-91.58678108511012,41.671262485330615,Belknap,-71.42234599666737,43.517576175201995
2020,19103,45033,754,Johnson,Dillon,Johnson,-91.58678108511012,41.671262485330615,Dillon,-79.37850730207529,34.39151713324067
2020,19173,40047,116,Taylor,Garfield,Taylor,-94.69598428153004,40.7374817520847,Garfield,-97.78264406575005,36.379135509303794
2020,19173,05109,784,Taylor,Pike,Taylor,-94.69598428153004,40.7374817520847,Pike,-93.65581404897605,34.16309345900677
2020,19173,26051,569,Taylor,Gladwin,Taylor,-94.69598428153004,40.7374817520847,Gladwin,-84.38860356420057,43.99059757242006
2020,19173,22023,409,Taylor,Cameron,Taylor,-94.69598428153004,40.7374817520847,Cameron,-93.19352081752709,29.875915096221522
2020,06089,19055,236,Shasta,Delaware,Shasta,-122.04131653401559,40.7638126840733,Delaware,-91.36658577932168,42.47137673339348
2020,51165,19055,688,Rockingham,Delaware,Rockingham,-78.87567364660718,38.511889659764215,Delaware,-91.36658577932168,42.47137673339348
2020,40081,19055,104,Lincoln,Delaware,Lincoln,-96.88125513496577,35.7026989020721,Delaware,-91.36658577932168,42.47137673339348
2020,38045,19155,409,LaMoure,Pottawattamie,LaMoure,-98.5355533262592,46.45704702451584,Pottawattamie,-95.54287504854898,41.33666368888495
2020,56039,19155,64,Teton,Pottawattamie,Teton,-110.58940462988814,43.9324053389621,Pottawattamie,-95.54287504854898,41.33666368888495
2020,05149,19155,737,Yell,Pottawattamie,Yell,-93.41122923060183,35.00270051796916,Pottawattamie,-95.54287504854898,41.33666368888495
2020,16017,19155,978,Bonner,Pottawattamie,Bonner,-116.60060274987919,48.29950623708488,Pottawattamie,-95.54287504854898,41.33666368888495
2020,31173,19155,658,Thurston,Pottawattamie,Thurston,-96.54390294033172,42.158245898806726,Pottawattamie,-95.54287504854898,41.33666368888495
2020,12085,19171,74,Martin,Tama,Martin,-80.4315033021669,27.07752206606173,Tama,-92.53258691119956,42.079834141237875
2020,16029,19171,685,Caribou,Tama,Caribou,-111.56224855351668,42.77039807216403,Tama,-92.53258691119956,42.079834141237875
2020,19171,33009,846,Tama,Grafton,Tama,-92.53258691119956,42.079834141237875,Grafton,-71.82137472764217,43.93995015009994
2020,19189,55045,17,Winnebago,Green,Winnebago,-93.73411619736768,43.37756873560599,Green,-89.60214390024446,42.67990724270734
2020,08123,19189,637,Weld,Winnebago,Weld,-104.39411430240123,40.55418014020019,Winnebago,-93.73411619736768,43.37756873560599
2020,55061,19189,653,Kewaunee,Winnebago,Kewaunee,-87.61522514983237,44.51628244451795,Winnebago,-93.73411619736768,43.37756873560599
2020,16017,19189,583,Bonner,Winnebago,Bonner,-116.60060274987919,48.29950623708488,Winnebago,-93.73411619736768,43.37756873560599
2020,47023,19083,244,Chester,Hardin,Chester,-88.61373420486198,35.42206224620011,Hardin,-93.24034419102912,42.383870864068825
2020,19083,39125,145,Hardin,Paulding,Hardin,-93.24034419102912,42.383870864068825,Paulding,-84.5801624653583,41.11680397332451
2020,19083,42129,615,Hardin,Westmoreland,Hardin,-93.24034419102912,42.383870864068825,Westmoreland,-79.46693986446836,40.310808298315
2020,20025,69110,864,Clark,Saipan,Clark,-99.82001265621741,37.23548182181783,Saipan,145.7508956744932,15.189540718180185
2020,20025,02130,279,Clark,Ketchikan Gateway,Clark,-99.82001265621741,37.23548182181783,Ketchikan Gateway,-130.93500651879646,55.58316884600228
2020,20209,16005,841,Wyandotte,Bannock,Wyandotte,-94.76495645120758,39.11445395643336,Bannock,-112.22398547703746,42.668126580784396
2020,20209,15005,353,Wyandotte,Kalawao,Wyandotte,-94.76495645120758,39.11445395643336,Kalawao,-156.9493794582276,21.172970106176326
2020,22085,20209,345,Sabine,Wyandotte,Sabine,-93.55506686158097,31.56284593822014,Wyandotte,-94.76495645120758,39.11445395643336
2020,05051,20125,748,Garland,Montgomery,Garland,-93.15034615562548,34.57663442695199,Montgomery,-95.74280940020164,37.192452970077476
2020,20125,42029,772,Montgomery,Chester,Montgomery,-95.74280940020164,37.192452970077476,Chester,-75.74890386001947,39.97297604313147
2020,22083,20125,551,Richland,Montgomery,Richland,-91.76368519484558,32.417305051803666,Montgomery,-95.74280940020164,37.192452970077476
2020,20125,36061,894,Montgomery,New York,Montgomery,-95.74280940020164,37.192452970077476,New York,-73.97147606350285,40.772141576671615
2020,20125,01009,696,Montgomery,Blount,Montgomery,-95.74280940020164,37.192452970077476,Blount,-86.56699351196858,33.98112926877265
2020,31035,20087,914,Clay,Jefferson,Clay,-98.05126399885935,40.524441478457994,Jefferson,-95.38335559299263,39.23587256439172
2020,47113,20087,746,Madison,Jefferson,Madison,-88.83846645545393,35.60806397848116,Jefferson,-95.38335559299263,39.23587256439172
2020,20143,29175,79,Ottawa,Randolph,Ottawa,-97.65021466291391,39.13242185938769,Randolph,-92.49701180378176,39.440096247950464
2020,60010,20143,67,Eastern,Ottawa,Eastern,-170.6558017113858,-14.273624066906502,Ottawa,-97.65021466291391,39.13242185938769
2020,45051,20143,741,Horry,Ottawa,Horry,-78.99653334732754,33.920884188898626,Ottawa,-97.65021466291391,39.13242185938769
2020,72073,20143,391,Jayuya,Ottawa,Jayuya,-66.58808033750867,18.210517262753037,Ottawa,-97.65021466291391,39.13242185938769
2020,20143,42083,711,Ottawa,McKean,Ottawa,-97.65021466291391,39.13242185938769,McKean,-78.56889199878967,41.80787429207404
2020,47147,20089,814,Robertson,Jewell,Robertson,-86.87043521952606,36.52544620710954,Jewell,-98.21822251045488,39.78462945423355
2020,26121,20089,133,Muskegon,Jewell,Muskegon,-86.15174972145775,43.291279466317505,Jewell,-98.21822251045488,39.78462945423355
2020,05131,20089,379,Sebastian,Jewell,Sebastian,-94.27440704362543,35.19978698828288,Jewell,-98.21822251045488,39.78462945423355
2020,20089,23029,953,Jewell,Washington,Jewell,-98.21822251045488,39.78462945423355,Washington,-67.62874276326203,45.020292465950874
2020,20061,05027,626,Geary,Columbia,Geary,-96.75233828248487,39.002413566823755,Columbia,-93.22724228098022,33.21405964702343
2020,20061,05007,186,Geary,Benton,Geary,-96.75233828248487,39.002413566823755,Benton,-94.25639499389187,36.33885227067612
2020,20061,45083,886,Geary,Spartanburg,Geary,-96.75233828248487,39.002413566823755,Spartanburg,-81.99064632206351,34.931163359190855
2020,33001,20061,961,Belknap,Geary,Belknap,-71.42234599666737,43.517576175201995,Geary,-96.75233828248487,39.002413566823755
2020,50017,20001,685,Orange,Allen,Orange,-72.37719337258781,44.00564790047353,Allen,-95.30136841390983,37.88566932736498
2020,20001,32009,969,Allen,Esmeralda,Allen,-95.30136841390983,37.88566932736498,Esmeralda,-117.63129850501845,37.78394434319081
2020,20001,40111,576,Allen,Okmulgee,Allen,-95.30136841390983,37.88566932736498,Okmulgee,-95.96430792224918,35.64653254690796
2020,20001,12077,574,Allen,Liberty,Allen,-95.30136841390983,37.88566932736498,Liberty,-84.88323202110661,30.241400507613992
2020,13247,20047,220,Rockdale,Edwards,Rockdale,-84.02621947212877,33.65484555338087,Edwards,-99.31197547932427,37.887747101546154
2020,40059,20047,119,Harper,Edwards,Harper,-99.66688462289684,36.78873837425841,Edwards,-99.31197547932427,37.887747101546154
2020,20133,31035,177,Neosho,Clay,Neosho,-95.30662006876831,37.55841218532179,Clay,-98.05126399885935,40.524441478457994
2020,31125,20133,636,Nance,Neosho,Nance,-97.99256776441175,41.39734121701924,Neosho,-95.30662006876831,37.55841218532179
2020,20133,30047,448,Neosho,Lake,Neosho,-95.30662006876831,37.55841218532179,Lake,-114.08944795928954,47.64510972502037
2020,20133,39047,933,Neosho,Fayette,Neosho,-95.30662006876831,37.55841218532179,Fayette,-83.45607786838684,39.56023358800491
2020,22083,21177,440,Richland,Muhlenberg,Richland,-91.76368519484558,32.417305051803666,Muhlenberg,-87.14262468923646,37.21587277213076
2020,30057,21177,411,Madison,Muhlenberg,Madison,-111.91951039825204,45.299324757523365,Muhlenberg,-87.14262468923646,37.21587277213076
2020,54087,21177,229,Roane,Muhlenberg,Roane,-81.34836850637109,38.71405660347242,Muhlenberg,-87.14262468923646,37.21587277213076
2020,21189,26127,912,Owsley,Oceana,Owsley,-83.68315405676374,37.41973749533903,Oceana,-86.26735575450391,43.640979453424904
2020,21231,21189,361,Wayne,Owsley,Wayne,-84.82882086860575,36.80092732059142,Owsley,-83.68315405676374,37.41973749533903
2020,21189,19149,818,Owsley,Plymouth,Owsley,-83.68315405676374,37.41973749533903,Plymouth,-96.21416149008164,42.73789344280246
2020,31169,21189,699,Thayer,Owsley,Thayer,-97.59506166067902,40.1762070057522,Owsley,-83.68315405676374,37.41973749533903
2020,20025,21189,562,Clark,Owsley,Clark,-99.82001265621741,37.23548182181783,Owsley,-83.68315405676374,37.41973749533903
2020,21165,04012,524,Menifee,La Paz,Menifee,-83.5988885325422,37.941704173461325,La Paz,-113.98243445342943,33.72882668287007
2020,21165,35047,195,Menifee,San Miguel,Menifee,-83.5988885325422,37.941704173461325,San Miguel,-104.815621211053,35.48147349934304
2020,06011,21113,110,Colusa,Jessamine,Colusa,-122.23726041341983,39.177567157138554,Jessamine,-84.58050539177297,37.87233383021258
2020,45033,21113,84,Dillon,Jessamine,Dillon,-79.37850730207529,34.39151713324067,Jessamine,-84.58050539177297,37.87233383021258
2020,21113,09009,251,Jessamine,New Haven,Jessamine,-84.58050539177297,37.87233383021258,New Haven,-72.93125232713736,41.41049533722678
2020,21113,20047,123,Jessamine,Edwards,Jessamine,-84.58050539177297,37.87233383021258,Edwards,-99.31197547932427,37.887747101546154
2020,48329,21113,216,Midland,Jessamine,Midland,-102.0315607328274,31.86914038096837,Jessamine,-84.58050539177297,37.87233383021258
2020,21159,16015,23,Martin,Boise,Martin,-82.51407896832407,37.80103662748865,Boise,-115.73214979549257,43.98888339077591
2020,21159,23027,845,Martin,Waldo,Martin,-82.51407896832407,37.80103662748865,Waldo,-69.14474978944266,44.500963566104396
2020,09007,21089,40,Middlesex,Greenup,Middlesex,-72.53429842397023,41.463775948834176,Greenup,-82.92205692594636,38.54608717213083
2020,40153,21089,161,Woodward,Greenup,Woodward,-99.26500172190863,36.422584056984505,Greenup,-82.92205692594636,38.54608717213083
2020,20133,21089,828,Neosho,Greenup,Neosho,-95.30662006876831,37.55841218532179,Greenup,-82.92205692594636,38.54608717213083
2020,21089,46121,353,Greenup,Todd,Greenup,-82.92205692594636,38.54608717213083,Todd,-100.7186254088678,43.19368331544692
2020,19189,21039,389,Winnebago,Carlisle,Winnebago,-93.73411619736768,43.37756873560599,Carlisle,-88.97059541382639,36.853170397199186
2020,21039,50021,770,Carlisle,Rutland,Carlisle,-88.97059541382639,36.853170397199186,Rutland,-73.03680295386697,43.58003231046963
2020,42129,21231,974,Westmoreland,Wayne,Westmoreland,-79.46693986446836,40.310808298315,Wayne,-84.82882086860575,36.80092732059142
2020,21231,26121,447,Wayne,Muskegon,Wayne,-84.82882086860575,36.80092732059142,Muskegon,-86.15174972145775,43.291279466317505
2020,21231,25015,583,Wayne,Hampshire,Wayne,-84.82882086860575,36.80092732059142,Hampshire,-72.66339306822168,42.340578674569116
2020,08099,21207,82,Prowers,Russell,Prowers,-102.39327620962126,37.95524734333617,Russell,-85.05846187643317,36.99112558819273
2020,41037,21207,970,Lake,Russell,Lake,-120.38428879059761,42.79085403812822,Russell,-85.05846187643317,36.99112558819273
2020,12117,21207,967,Seminole,Russell,Seminole,-81.23635522003724,28.716901425356802,Russell,-85.05846187643317,36.99112558819273
2020,36095,21201,260,Schoharie,Robertson,Schoharie,-74.44198361512916,42.58799704427167,Robertson,-84.05185785231889,38.51777613932664
2020,22125,21201,416,West Feliciana,Robertson,West Feliciana,-91.42031978280559,30.88036225251477,Robertson,-84.05185785231889,38.51777613932664
2020,15009,22095,469,Maui,St. John the Baptist,Maui,-156.56851096169464,20.864514834678573,St. John the Baptist,-90.47120468578117,30.126501340295864
2020,22095,09009,171,St. John the Baptist,New Haven,St. John the Baptist,-90.47120468578117,30.126501340295864,New Haven,-72.93125232713736,41.41049533722678
2020,22095,22037,422,St. John the Baptist,East Feliciana,St. John the Baptist,-90.47120468578117,30.126501340295864,East Feliciana,-91.04550487592783,30.84515827070757
2020,20089,22095,743,Jewell,St. John the Baptist,Jewell,-98.21822251045488,39.78462945423355,St. John the Baptist,-90.47120468578117,30.126501340295864
2020,22095,17005,932,St. John the Baptist,Bond,St. John the Baptist,-90.47120468578117,30.126501340295864,Bond,-89.4356255594113,38.88686531216093
2020,37151,22125,463,Randolph,West Feliciana,Randolph,-79.80594097847201,35.71012602407338,West Feliciana,-91.42031978280559,30.88036225251477
2020,22125,51127,666,West Feliciana,New Kent,West Feliciana,-91.42031978280559,30.88036225251477,New Kent,-76.99751089361169,37.505777169453644
2020,22037,56031,489,East Feliciana,Platte,East Feliciana,-91.04550487592783,30.84515827070757,Platte,-104.96614122174772,42.131318742456564
2020,51183,22037,214,Sussex,East Feliciana,Sussex,-77.26210111047737,36.92181407506765,East Feliciana,-91.04550487592783,30.84515827070757
2020,22037,36095,291,East Feliciana,Schoharie,East Feliciana,-91.04550487592783,30.84515827070757,Schoharie,-74.44198361512916,42.58799704427167
2020,36047,22023,772,Kings,Cameron,Kings,-73.93854833624228,40.63974905854068,Cameron,-93.19352081752709,29.875915096221522
2020,22023,33009,758,Cameron,Grafton,Cameron,-93.19352081752709,29.875915096221522,Grafton,-71.82137472764217,43.93995015009994
2020,22023,02198,811,Cameron,Prince of Wales-Hyder,Cameron,-93.19352081752709,29.875915096221522,Prince of Wales-Hyder,-133.0422181146809,55.806754449684874
2020,22023,19173,22,Cameron,Taylor,Cameron,-93.19352081752709,29.875915096221522,Taylor,-94.69598428153004,40.7374817520847
2020,06089,22023,325,Shasta,Cameron,Shasta,-122.04131653401559,40.7638126840733,Cameron,-93.19352081752709,29.875915096221522
2020,22127,78030,715,Winn,St. Thomas,Winn,-92.63660710785763,31.944363007619575,St. Thomas,-64.94020096858905,18.345238797008147
2020,22127,48167,749,Winn,Galveston,Winn,-92.63660710785763,31.944363007619575,Galveston,-94.9598799939234,29.389608214758717
2020,22127,44009,586,Winn,Washington,Winn,-92.63660710785763,31.944363007619575,Washington,-71.62335721499157,41.469195809934135
2020,37199,22127,334,Yancey,Winn,Yancey,-82.30791080189587,35.898329749162826,Winn,-92.63660710785763,31.944363007619575
2020,22127,06091,648,Winn,Sierra,Winn,-92.63660710785763,31.944363007619575,Sierra,-120.51626063456334,39.58048691920336
2020,46031,22083,726,Corson,Richland,Corson,-101.1967870103131,45.70912153965298,Richland,-91.76368519484558,32.417305051803666
2020,22083,60020,132,Richland,Manu'a,Richland,-91.76368519484558,32.417305051803666,Manu'a,-169.5128023309311,-14.21916420111205
2020,17005,22083,855,Bond,Richland,Bond,-89.4356255594113,38.88686531216093,Richland,-91.76368519484558,32.417305051803666
2020,34011,22003,435,Cumberland,Allen,Cumberland,-75.11096359305787,39.37344214299154,Allen,-92.82763309382538,30.653348764575462
2020,22003,01065,670,Allen,Hale,Allen,-92.82763309382538,30.653348764575462,Hale,-87.6292308426273,32.76256749431152
2020,22003,42083,949,Allen,McKean,Allen,-92.82763309382538,30.653348764575462,McKean,-78.56889199878967,41.80787429207404
2020,22001,49055,750,Acadia,Wayne,Acadia,-92.41188993043636,30.290231242989158,Wayne,-110.9034872404254,38.32577588438474
2020,39107,22001,825,Mercer,Acadia,Mercer,-84.62929356795078,40.54022017683257,Acadia,-92.41188993043636,30.290231242989158
2020,22001,35027,346,Acadia,Lincoln,Acadia,-92.41188993043636,30.290231242989158,Lincoln,-105.45928044995016,33.74502216507665
2020,33001,22053,503,Belknap,Jefferson Davis,Belknap,-71.42234599666737,43.517576175201995,Jefferson Davis,-92.81397862844867,30.268167381049533
2020,22053,37199,492,Jefferson Davis,Yancey,Jefferson Davis,-92.81397862844867,30.268167381049533,Yancey,-82.30791080189587,35.898329749162826
2020,13215,22053,727,Muscogee,Jefferson Davis,Muscogee,-84.8763090338211,32.50993415476507,Jefferson Davis,-92.81397862844867,30.268167381049533
2020,08069,22053,502,Larimer,Jefferson Davis,Larimer,-105.46096380095,40.66631722641838,Jefferson Davis,-92.81397862844867,30.268167381049533
2020,22085,42129,938,Sabine,Westmoreland,Sabine,-93.55506686158097,31.56284593822014,Westmoreland,-79.46693986446836,40.310808298315
2020,22085,38013,494,Sabine,Burke,Sabine,-93.55506686158097,31.56284593822014,Burke,-102.51829751049091,48.790844725150826
2020,22085,47177,197,Sabine,Warren,Sabine,-93.55506686158097,31.56284593822014,Warren,-85.77912792812796,35.67832783639888
2020,22085,51117,725,Sabine,Mecklenburg,Sabine,-93.55506686158097,31.56284593822014,Mecklenburg,-78.362655649161,36.68052891280561
2020,22085,18061,934,Sabine,Harrison,Sabine,-93.55506686158097,31.56284593822014,Harrison,-86.11141127976349,38.195031482820724
2020,04027,23031,562,Yuma,York,Yuma,-113.9058786280493,32.768860525592004,York,-70.71421778324661,43.47783717399403
2020,23031,16037,735,York,Custer,York,-70.71421778324661,43.47783717399403,Custer,-114.27984455791535,44.24097826226213
2020,29033,23031,147,Carroll,York,Carroll,-93.50504584919015,39.42693629949317,York,-70.71421778324661,43.47783717399403
2020,48221,23031,319,Hood,York,Hood,-97.83238264792178,32.43011583404709,York,-70.71421778324661,43.47783717399403
2020,40075,23029,751,Kiowa,Washington,Kiowa,-98.98043352375923,34.916300308675126,Washington,-67.62874276326203,45.020292465950874
2020,02158,23029,95,Kusilvak,Washington,Kusilvak,-163.39652191982415,62.150674011714614,Washington,-67.62874276326203,45.020292465950874
2020,33005,23029,619,Cheshire,Washington,Cheshire,-72.25112995213253,42.919329314716066,Washington,-67.62874276326203,45.020292465950874
2020,26045,23027,349,Eaton,Waldo,Eaton,-84.83760824188984,42.59595495545084,Waldo,-69.14474978944266,44.500963566104396
2020,23027,12129,300,Waldo,Wakulla,Waldo,-69.14474978944266,44.500963566104396,Wakulla,-84.40017089969714,30.166097953761877
2020,23027,55099,328,Waldo,Price,Waldo,-69.14474978944266,44.500963566104396,Price,-90.36132673138296,45.68033332637476
2020,04013,23027,788,Maricopa,Waldo,Maricopa,-112.49279594891249,33.34841524888647,Waldo,-69.14474978944266,44.500963566104396
2020,42083,23027,938,McKean,Waldo,McKean,-78.56889199878967,41.80787429207404,Waldo,-69.14474978944266,44.500963566104396
2020,31173,23005,494,Thurston,Cumberland,Thurston,-96.54390294033172,42.158245898806726,Cumberland,-70.37564306210261,43.838201752740716
2020,09011,23005,289,New London,Cumberland,New London,-72.1018451132234,41.487023101068694,Cumberland,-70.37564306210261,43.838201752740716
2020,09011,23005,638,New London,Cumberland,New London,-72.1018451132234,41.487023101068694,Cumberland,-70.37564306210261,43.838201752740716
2020,23005,29201,786,Cumberland,Scott,Cumberland,-70.37564306210261,43.838201752740716,Scott,-89.56857359981574,37.05277375113286
2020,46011,23019,713,Brookings,Penobscot,Brookings,-96.79061158217482,44.369777884721245,Penobscot,-68.65081864631128,45.39709984224713
2020,06091,23019,802,Sierra,Penobscot,Sierra,-120.51626063456334,39.58048691920336,Penobscot,-68.65081864631128,45.39709984224713
2020,23017,28079,843,Oxford,Leake,Oxford,-70.75596902836048,44.49726375345435,Leake,-89.52398716378399,32.75357746650541
2020,54025,23017,767,Greenbrier,Oxford,Greenbrier,-80.45280133339375,37.94697489348364,Oxford,-70.75596902836048,44.49726375345435
2020,40135,23017,852,Sequoyah,Oxford,Sequoyah,-94.7553090375481,35.49561003431306,Oxford,-70.75596902836048,44.49726375345435
2020,45069,23017,923,Marlboro,Oxford,Marlboro,-79.67850955754182,34.60190119860453,Oxford,-70.75596902836048,44.49726375345435
2020,48385,23017,970,Real,Oxford,Real,-99.82202740779992,29.831727264395884,Oxford,-70.75596902836048,44.49726375345435
2020,23015,42073,834,Lincoln,Lawrence,Lincoln,-69.54230430729412,44.06292324884638,Lawrence,-80.33429121028698,40.99122879923204
2020,23015,60050,671,Lincoln,Western,Lincoln,-69.54230430729412,44.06292324884638,Western,-170.7694056687718,-14.324370825559253
2020,46031,23015,73,Corson,Lincoln,Corson,-101.1967870103131,45.70912153965298,Lincoln,-69.54230430729412,44.06292324884638
2020,23015,12015,256,Lincoln,Charlotte,Lincoln,-69.54230430729412,44.06292324884638,Charlotte,-81.91191244622527,26.906033839592215
2020,48423,23007,1000,Smith,Franklin,Smith,-95.26905714880047,32.375283118841025,Franklin,-70.44277810354416,44.97293109515786
2020,23007,35017,193,Franklin,Grant,Franklin,-70.44277810354416,44.97293109515786,Grant,-108.3823778446009,32.73810355068962
2020,23007,36123,950,Franklin,Yates,Franklin,-70.44277810354416,44.97293109515786,Yates,-77.1056528821349,42.63353750090884
2020,20047,23007,133,Edwards,Franklin,Edwards,-99.31197547932427,37.887747101546154,Franklin,-70.44277810354416,44.97293109515786
2020,23007,35023,949,Franklin,Hidalgo,Franklin,-70.44277810354416,44.97293109515786,Hidalgo,-108.71399579780017,31.91284023290905
2020,16005,23003,600,Bannock,Aroostook,Bannock,-112.22398547703746,42.668126580784396,Aroostook,-68.59503111832905,46.65665034360294
2020,23003,20061,76,Aroostook,Geary,Aroostook,-68.59503111832905,46.65665034360294,Geary,-96.75233828248487,39.002413566823755
2020,40025,23003,744,Cimarron,Aroostook,Cimarron,-102.51774206231133,36.74850097905363,Aroostook,-68.59503111832905,46.65665034360294
2020,23021,48423,379,Piscataquis,Smith,Piscataquis,-69.28469617775112,45.8344497851719,Smith,-95.26905714880047,32.375283118841025
2020,23021,46063,303,Piscataquis,Harding,Piscataquis,-69.28469617775112,45.8344497851719,Harding,-103.49441625076504,45.579899702204116
2020,23021,27057,480,Piscataquis,Hubbard,Piscataquis,-69.28469617775112,45.8344497851719,Hubbard,-94.91724334072313,47.10763860832731
2020,02188,24039,861,Northwest Arctic,Somerset,Northwest Arctic,-159.73591489750007,67.04543797884406,Somerset,-75.75903185586255,38.11353476270813
2020,35037,24039,131,Quay,Somerset,Quay,-103.55106799383775,35.10401146924923,Somerset,-75.75903185586255,38.11353476270813
2020,44007,24039,314,Providence,Somerset,Providence,-71.58023528583024,41.872269203897126,Somerset,-75.75903185586255,38.11353476270813
2020,46011,24033,867,Brookings,Prince George's,Brookings,-96.79061158217482,44.369777884721245,Prince George's,-76.8470323817263,38.829659000603
2020,24033,29225,774,Prince George's,Webster,Prince George's,-76.8470323817263,38.829659000603,Webster,-92.87586279967692,37.28080830185269
2020,24033,28039,211,Prince George's,George,Prince George's,-76.8470323817263,38.829659000603,George,-88.64414517394093,30.862696040460822
2020,39047,24001,772,Fayette,Allegany,Fayette,-83.45607786838684,39.56023358800491,Allegany,-78.69740676171764,39.62131620945715
2020,37057,24001,755,Davidson,Allegany,Davidson,-80.21262439319538,35.79258023070278,Allegany,-78.69740676171764,39.62131620945715
2020,24001,25015,292,Allegany,Hampshire,Allegany,-78.69740676171764,39.62131620945715,Hampshire,-72.66339306822168,42.340578674569116
2020,24047,53061,676,Worcester,Snohomish,Worcester,-75.33419337386391,38.212706732147524,Snohomish,-121.69790284648604,48.0476205912406
2020,24047,32017,69,Worcester,Lincoln,Worcester,-75.33419337386391,38.212706732147524,Lincoln,-114.87894464985084,37.641829359427845
2020,34025,24047,617,Monmouth,Worcester,Monmouth,-74.22073691410634,40.2606381519362,Worcester,-75.33419337386391,38.212706732147524
2020,09009,24047,425,New Haven,Worcester,New Haven,-72.93125232713736,41.41049533722678,Worcester,-75.33419337386391,38.212706732147524
2020,24047,44009,101,Worcester,Washington,Worcester,-75.33419337386391,38.212706732147524,Washington,-71.62335721499157,41.469195809934135
2020,26089,24027,875,Leelanau,Howard,Leelanau,-85.81236946796268,44.939192965608136,Howard,-76.93045214335292,39.250470176171085
2020,25001,24027,285,Barnstable,Howard,Barnstable,-70.29026146387292,41.723302088000096,Howard,-76.93045214335292,39.250470176171085
2020,24027,40037,25,Howard,Creek,Howard,-76.93045214335292,39.250470176171085,Creek,-96.37099598485567,35.902369797668136
2020,50003,24027,990,Bennington,Howard,Bennington,-73.09300879069497,43.035087756941685,Howard,-76.93045214335292,39.250470176171085
2020,24027,56031,484,Howard,Platte,Howard,-76.93045214335292,39.250470176171085,Platte,-104.96614122174772,42.131318742456564
2020,38013,24023,316,Burke,Garrett,Burke,-102.51829751049091,48.790844725150826,Garrett,-79.273071887994,39.52862935518833
2020,24023,30061,388,Garrett,Mineral,Garrett,-79.273071887994,39.52862935518833,Mineral,-114.99676896944874,47.146842942046064
2020,32007,24023,339,Elko,Garrett,Elko,-115.35492973351626,41.14436676333232,Garrett,-79.273071887994,39.52862935518833
2020,24023,27115,313,Garrett,Pine,Garrett,-79.273071887994,39.52862935518833,Pine,-92.74191693191209,46.12027472586021
2020,24023,78020,95,Garrett,St. John,Garrett,-79.273071887994,39.52862935518833,St. John,-64.7465859859837,18.340316075154053
2020,24045,06101,438,Wicomico,Sutter,Wicomico,-75.62209425021715,38.37288607020127,Sutter,-121.69443141095945,39.03430282373134
2020,24045,44009,103,Wicomico,Washington,Wicomico,-75.62209425021715,38.37288607020127,Washington,-71.62335721499157,41.469195809934135
2020,24045,55105,550,Wicomico,Rock,Wicomico,-75.62209425021715,38.37288607020127,Rock,-89.07192902103002,42.67115699771012
2020,04027,24037,990,Yuma,St. Mary's,Yuma,-113.9058786280493,32.768860525592004,St. Mary's,-76.60567870362448,38.30134935134733
2020,24037,31089,779,St. Mary's,Holt,St. Mary's,-76.60567870362448,38.30134935134733,Holt,-98.78361232481488,42.45517978425071
2020,24037,31169,78,St. Mary's,Thayer,St. Mary's,-76.60567870362448,38.30134935134733,Thayer,-97.59506166067902,40.1762070057522
2020,24031,56033,563,Montgomery,Sheridan,Montgomery,-77.20426126369082,39.136392483972784,Sheridan,-106.87940876159603,44.791012325183594
2020,21039,24031,708,Carlisle,Montgomery,Carlisle,-88.97059541382639,36.853170397199186,Montgomery,-77.20426126369082,39.136392483972784
2020,18137,24013,246,Ripley,Carroll,Ripley,-85.26231494101481,39.103387197599645,Carroll,-77.02265509631397,39.56281956531519
2020,24013,55099,353,Carroll,Price,Carroll,-77.02265509631397,39.56281956531519,Price,-90.36132673138296,45.68033332637476
2020,30087,25021,126,Rosebud,Norfolk,Rosebud,-106.72798456613613,46.22661742992142,Norfolk,-71.20743671017209,42.16243383395418
2020,37193,25021,481,Wilkes,Norfolk,Wilkes,-81.16373671466393,36.2058154647115,Norfolk,-71.20743671017209,42.16243383395418
2020,21089,25021,717,Greenup,Norfolk,Greenup,-82.92205692594636,38.54608717213083,Norfolk,-71.20743671017209,42.16243383395418
2020,25021,35031,851,Norfolk,McKinley,Norfolk,-71.20743671017209,42.16243383395418,McKinley,-108.26268241717288,35.58095570630577
2020,25021,69100,504,Norfolk,Rota,Norfolk,-71.20743671017209,42.16243383395418,Rota,145.20941209153463,14.155128187466216
2020,25019,44007,194,Nantucket,Providence,Nantucket,-70.07344647038713,41.28424083520403,Providence,-71.58023528583024,41.872269203897126
2020,25005,25019,706,Bristol,Nantucket,Bristol,-71.11396441148321,41.79678625015615,Nantucket,-70.07344647038713,41.28424083520403
2020,25019,40135,16,Nantucket,Sequoyah,Nantucket,-70.07344647038713,41.28424083520403,Sequoyah,-94.7553090375481,35.49561003431306
2020,38071,25003,983,Ramsey,Berkshire,Ramsey,-98.72005286244874,48.268948091418636,Berkshire,-73.2064881354839,42.37004205795067
2020,49001,25003,421,Beaver,Berkshire,Beaver,-113.23547671388188,38.35805819925912,Berkshire,-73.2064881354839,42.37004205795067
2020,25001,05101,836,Barnstable,Newton,Barnstable,-70.29026146387292,41.723302088000096,Newton,-93.21787482919471,35.91983854237522
2020,22083,25001,476,Richland,Barnstable,Richland,-91.76368519484558,32.417305051803666,Barnstable,-70.29026146387292,41.723302088000096
2020,25001,21177,872,Barnstable,Muhlenberg,Barnstable,-70.29026146387292,41.723302088000096,Muhlenberg,-87.14262468923646,37.21587277213076
2020,25001,53023,658,Barnstable,Garfield,Barnstable,-70.29026146387292,41.723302088000096,Garfield,-117.54449943427942,46.430951479726986
2020,25027,20209,260,Worcester,Wyandotte,Worcester,-71.90728421404546,42.35106933757326,Wyandotte,-94.76495645120758,39.11445395643336
2020,25027,56031,596,Worcester,Platte,Worcester,-71.90728421404546,42.35106933757326,Platte,-104.96614122174772,42.131318742456564
2020,25027,56015,486,Worcester,Goshen,Worcester,-71.90728421404546,42.35106933757326,Goshen,-104.35335853658708,42.086500287506055
2020,54083,25027,987,Randolph,Worcester,Randolph,-79.8760270539096,38.774860209766565,Worcester,-71.90728421404546,42.35106933757326
2020,46121,25027,502,Todd,Worcester,Todd,-100.7186254088678,43.19368331544692,Worcester,-71.90728421404546,42.35106933757326
2020,25015,72079,756,Hampshire,Lajas,Hampshire,-72.66339306822168,42.340578674569116,Lajas,-67.03993663379596,18.012082514582247
2020,02100,25015,316,Haines,Hampshire,Haines,-135.49671214734187,59.11597493494767,Hampshire,-72.66339306822168,42.340578674569116
2020,25015,26121,209,Hampshire,Muskegon,Hampshire,-72.66339306822168,42.340578674569116,Muskegon,-86.15174972145775,43.291279466317505
2020,25007,02110,860,Dukes,Juneau,Dukes,-70.65382066791467,41.39792149190653,Juneau,-134.16947427250395,58.44729341723694
2020,25007,47125,315,Dukes,Montgomery,Dukes,-70.65382066791467,41.39792149190653,Montgomery,-87.38252096718236,36.496497079589076
2020,25011,22095,272,Franklin,St. John the Baptist,Franklin,-72.59168020400485,42.58327600968088,St. John the Baptist,-90.47120468578117,30.126501340295864
2020,18093,25011,447,Lawrence,Franklin,Lawrence,-86.48327069011117,38.84106138452681,Franklin,-72.59168020400485,42.58327600968088
2020,25005,26121,201,Bristol,Muskegon,Bristol,-71.11396441148321,41.79678625015615,Muskegon,-86.15174972145775,43.291279466317505
2020,33017,25005,911,Strafford,Bristol,Strafford,-71.02846304520081,43.296524133566855,Bristol,-71.11396441148321,41.79678625015615
2020,25005,29073,29,Bristol,Gasconade,Bristol,-71.11396441148321,41.79678625015615,Gasconade,-91.50785641943682,38.44039851421879
2020,36061,25005,45,New York,Bristol,New York,-73.97147606350285,40.772141576671615,Bristol,-71.11396441148321,41.79678625015615
2020,25005,26127,537,Bristol,Oceana,Bristol,-71.11396441148321,41.79678625015615,Oceana,-86.26735575450391,43.640979453424904
2020,41013,25009,447,Crook,Essex,Crook,-120.3556222812327,44.14211057994374,Essex,-70.951430689625,42.67168622902494
2020,16017,25009,380,Bonner,Essex,Bonner,-116.60060274987919,48.29950623708488,Essex,-70.951430689625,42.67168622902494
2020,25009,09011,962,Essex,New London,Essex,-70.951430689625,42.67168622902494,New London,-72.1018451132234,41.487023101068694
2020,15001,26051,330,Hawaii,Gladwin,Hawaii,-155.52110283184192,19.601314425277035,Gladwin,-84.38860356420057,43.99059757242006
2020,39053,26051,354,Gallia,Gladwin,Gallia,-82.31694305593435,38.824633104968875,Gladwin,-84.38860356420057,43.99059757242006
2020,49033,26051,835,Rich,Gladwin,Rich,-111.24450448769613,41.63143972054521,Gladwin,-84.38860356420057,43.99059757242006
2020,46121,26121,662,Todd,Muskegon,Todd,-100.7186254088678,43.19368331544692,Muskegon,-86.15174972145775,43.291279466317505
2020,37193,26121,820,Wilkes,Muskegon,Wilkes,-81.16373671466393,36.2058154647115,Muskegon,-86.15174972145775,43.291279466317505
2020,26121,36043,54,Muskegon,Herkimer,Muskegon,-86.15174972145775,43.291279466317505,Herkimer,-74.96241287774869,43.41764659074515
2020,25027,26121,385,Worcester,Muskegon,Worcester,-71.90728421404546,42.35106933757326,Muskegon,-86.15174972145775,43.291279466317505
2020,26121,21159,34,Muskegon,Martin,Muskegon,-86.15174972145775,43.291279466317505,Martin,-82.51407896832407,37.80103662748865
2020,26035,45053,383,Clare,Jasper,Clare,-84.84821195529909,43.987968020983914,Jasper,-81.0317954707134,32.43608992348189
2020,26035,16005,601,Clare,Bannock,Clare,-84.84821195529909,43.987968020983914,Bannock,-112.22398547703746,42.668126580784396
2020,26035,08069,796,Clare,Larimer,Clare,-84.84821195529909,43.987968020983914,Larimer,-105.46096380095,40.66631722641838
2020,06087,26035,571,Santa Cruz,Clare,Santa Cruz,-122.00081915597906,37.05612640993531,Clare,-84.84821195529909,43.987968020983914
2020,32021,26035,544,Mineral,Clare,Mineral,-118.43483404227322,38.538517166587035,Clare,-84.84821195529909,43.987968020983914
2020,26087,78020,661,Lapeer,St. John,Lapeer,-83.22207493882433,43.090188241995016,St. John,-64.7465859859837,18.340316075154053
2020,26087,39011,96,Lapeer,Auglaize,Lapeer,-83.22207493882433,43.090188241995016,Auglaize,-84.22221188903012,40.561016473260736
2020,26087,30061,456,Lapeer,Mineral,Lapeer,-83.22207493882433,43.090188241995016,Mineral,-114.99676896944874,47.146842942046064
2020,26087,46005,561,Lapeer,Beadle,Lapeer,-83.22207493882433,43.090188241995016,Beadle,-98.27795485816206,44.41465782277614
2020,39107,26087,771,Mercer,Lapeer,Mercer,-84.62929356795078,40.54022017683257,Lapeer,-83.22207493882433,43.090188241995016
2020,26127,31017,908,Oceana,Brown,Oceana,-86.26735575450391,43.640979453424904,Brown,-99.92938214650925,42.429664909436255
2020,26127,53069,596,Oceana,Wahkiakum,Oceana,-86.26735575450391,43.640979453424904,Wahkiakum,-123.42468527626512,46.29215270356598
2020,28123,26127,553,Scott,Oceana,Scott,-89.5377826515253,32.40662203077401,Oceana,-86.26735575450391,43.640979453424904
2020,26127,51181,663,Oceana,Surry,Oceana,-86.26735575450391,43.640979453424904,Surry,-76.89973697237512,37.10957401386072
2020,13215,26127,105,Muscogee,Oceana,Muscogee,-84.8763090338211,32.50993415476507,Oceana,-86.26735575450391,43.640979453424904
2020,78020,26059,588,St. John,Hillsdale,St. John,-64.7465859859837,18.340316075154053,Hillsdale,-84.59300798908065,41.887700251672754
2020,34031,26059,393,Passaic,Hillsdale,Passaic,-74.3012853890108,41.03483709287652,Hillsdale,-84.59300798908065,41.887700251672754
2020,02110,26059,288,Juneau,Hillsdale,Juneau,-134.16947427250395,58.44729341723694,Hillsdale,-84.59300798908065,41.887700251672754
2020,26117,13095,11,Montcalm,Dougherty,Montcalm,-85.15212308804551,43.31077779518528,Dougherty,-84.21714170650594,31.5333975794451
2020,26117,45033,184,Montcalm,Dillon,Montcalm,-85.15212308804551,43.31077779518528,Dillon,-79.37850730207529,34.39151713324067
2020,26117,26121,448,Montcalm,Muskegon,Montcalm,-85.15212308804551,43.31077779518528,Muskegon,-86.15174972145775,43.291279466317505
2020,10005,26117,323,Sussex,Montcalm,Sussex,-75.38993821323457,38.66074306842633,Montcalm,-85.15212308804551,43.31077779518528
2020,26117,38023,57,Montcalm,Divide,Montcalm,-85.15212308804551,43.31077779518528,Divide,-103.48720362452089,48.81518285447778
2020,23003,26089,842,Aroostook,Leelanau,Aroostook,-68.59503111832905,46.65665034360294,Leelanau,-85.81236946796268,44.939192965608136
2020,29025,26089,853,Caldwell,Leelanau,Caldwell,-93.98311750807108,39.65578607629494,Leelanau,-85.81236946796268,44.939192965608136
2020,26065,30061,476,Ingham,Mineral,Ingham,-84.37339749964949,42.59734268996423,Mineral,-114.99676896944874,47.146842942046064
2020,54057,26065,989,Mineral,Ingham,Mineral,-78.94409764905178,39.41444073190702,Ingham,-84.37339749964949,42.59734268996423
2020,19153,26045,773,Polk,Eaton,Polk,-93.57363043212635,41.68557348741017,Eaton,-84.83760824188984,42.59595495545084
2020,08123,26045,563,Weld,Eaton,Weld,-104.39411430240123,40.55418014020019,Eaton,-84.83760824188984,42.59595495545084
2020,26045,72079,352,Eaton,Lajas,Eaton,-84.83760824188984,42.59595495545084,Lajas,-67.03993663379596,18.012082514582247
2020,27167,40081,322,Wilkin,Lincoln,Wilkin,-96.46799829913833,46.35662260323354,Lincoln,-96.88125513496577,35.7026989020721
2020,27167,05007,90,Wilkin,Benton,Wilkin,-96.46799829913833,46.35662260323354,Benton,-94.25639499389187,36.33885227067612
2020,34031,27167,513,Passaic,Wilkin,Passaic,-74.3012853890108,41.03483709287652,Wilkin,-96.46799829913833,46.35662260323354
2020,13095,27167,308,Dougherty,Wilkin,Dougherty,-84.21714170650594,31.5333975794451,Wilkin,-96.46799829913833,46.35662260323354
2020,27133,32510,956,Rock,Carson City,Rock,-96.2530916194641,43.67477517269659,Carson City,-119.74704293643735,39.15140001087732
2020,27133,46063,555,Rock,Harding,Rock,-96.2530916194641,43.67477517269659,Harding,-103.49441625076504,45.579899702204116
2020,55037,27133,389,Florence,Rock,Florence,-88.39754910865561,45.84812097526158,Rock,-96.2530916194641,43.67477517269659
2020,42073,27001,207,Lawrence,Aitkin,Lawrence,-80.33429121028698,40.99122879923204,Aitkin,-93.41551321320848,46.6073425442495
2020,27001,18141,657,Aitkin,St. Joseph,Aitkin,-93.41551321320848,46.6073425442495,St. Joseph,-86.28990894913605,41.6166503374155
2020,27001,41031,866,Aitkin,Jefferson,Aitkin,-93.41551321320848,46.6073425442495,Jefferson,-121.17656557458415,44.62968427055331
2020,37061,27001,550,Duplin,Aitkin,Duplin,-77.93288418578598,34.936236947724794,Aitkin,-93.41551321320848,46.6073425442495
2020,27119,17111,932,Polk,McHenry,Polk,-96.40090003796479,47.774156362702726,McHenry,-88.45239945015476,42.32435524084779
2020,48061,27119,616,Cameron,Polk,Cameron,-97.51386900964594,26.134369803148484,Polk,-96.40090003796479,47.774156362702726
2020,27119,06031,326,Polk,Kings,Polk,-96.40090003796479,47.774156362702726,Kings,-119.8159365440222,36.07498673037009
2020,27057,01071,287,Hubbard,Jackson,Hubbard,-94.91724334072313,47.10763860832731,Jackson,-85.99912742627913,34.77966544291074
2020,08113,27057,761,San Miguel,Hubbard,San Miguel,-108.40551197211639,38.004564072775985,Hubbard,-94.91724334072313,47.10763860832731
2020,27057,04019,277,Hubbard,Pima,Hubbard,-94.91724334072313,47.10763860832731,Pima,-111.78900792506285,32.09963140449597
2020,04015,27077,736,Mohave,Lake of the Woods,Mohave,-113.76237870282479,35.69846255611227,Lake of the Woods,-94.90401236891512,48.769923544520886
2020,27077,39055,559,Lake of the Woods,Geauga,Lake of the Woods,-94.90401236891512,48.769923544520886,Geauga,-81.17871802042471,41.49974740599119
2020,27077,04011,452,Lake of the Woods,Greenlee,Lake of the Woods,-94.90401236891512,48.769923544520886,Greenlee,-109.23987684909537,33.21405023689448
2020,27017,42083,741,Carlton,McKean,Carlton,-92.67723251029935,46.59230447491479,McKean,-78.56889199878967,41.80787429207404
2020,27017,49057,585,Carlton,Weber,Carlton,-92.67723251029935,46.59230447491479,Weber,-111.91394758983795,41.270030388140064
2020,27017,54083,475,Carlton,Randolph,Carlton,-92.67723251029935,46.59230447491479,Randolph,-79.8760270539096,38.774860209766565
2020,23029,27017,88,Washington,Carlton,Washington,-67.62874276326203,45.020292465950874,Carlton,-92.67723251029935,46.59230447491479
2020,27017,37023,42,Carlton,Burke,Carlton,-92.67723251029935,46.59230447491479,Burke,-81.70498796353735,35.749487382409846
2020,38005,27031,106,Benson,Cook,Benson,-99.36513056579683,48.06943529017974,Cook,-90.53189866625839,47.90306070952713
2020,27031,40153,829,Cook,Woodward,Cook,-90.53189866625839,47.90306070952713,Woodward,-99.26500172190863,36.422584056984505
2020,27031,50025,680,Cook,Windham,Cook,-90.53189866625839,47.90306070952713,Windham,-72.713944312399,42.99031028661164
2020,32005,27031,635,Douglas,Cook,Douglas,-119.61636459706595,38.912067191087694,Cook,-90.53189866625839,47.90306070952713
2020,78010,27083,504,St. Croix,Lyon,St. Croix,-64.76358861483993,17.73350688618407,Lyon,-95.83860609273371,44.41360257489207
2020,27083,24047,218,Lyon,Worcester,Lyon,-95.83860609273371,44.41360257489207,Worcester,-75.33419337386391,38.212706732147524
2020,56025,27083,837,Natrona,Lyon,Natrona,-106.79850107878765,42.961300473936355,Lyon,-95.83860609273371,44.41360257489207
2020,27083,27133,618,Lyon,Rock,Lyon,-95.83860609273371,44.41360257489207,Rock,-96.2530916194641,43.67477517269659
2020,49015,27115,705,Emery,Pine,Emery,-110.70025652322528,38.9962542543943,Pine,-92.74191693191209,46.12027472586021
2020,19171,27115,926,Tama,Pine,Tama,-92.53258691119956,42.079834141237875,Pine,-92.74191693191209,46.12027472586021
2020,12015,28081,149,Charlotte,Lee,Charlotte,-81.91191244622527,26.906033839592215,Lee,-88.6803399539881,34.28979765338059
2020,28081,72017,863,Lee,Barceloneta,Lee,-88.6803399539881,34.28979765338059,Barceloneta,-66.55921793613044,18.446423653224034
2020,28081,08029,252,Lee,Delta,Lee,-88.6803399539881,34.28979765338059,Delta,-107.86321647437914,38.861690797984444
2020,28081,55045,766,Lee,Green,Lee,-88.6803399539881,34.28979765338059,Green,-89.60214390024446,42.67990724270734
2020,28153,17005,664,Wayne,Bond,Wayne,-88.69589848547075,31.64074621036316,Bond,-89.4356255594113,38.88686531216093
2020,28153,20025,296,Wayne,Clark,Wayne,-88.69589848547075,31.64074621036316,Clark,-99.82001265621741,37.23548182181783
2020,47157,28153,10,Shelby,Wayne,Shelby,-89.89581674818713,35.1839520517135,Wayne,-88.69589848547075,31.64074621036316
2020,28123,10003,79,Scott,New Castle,Scott,-89.5377826515253,32.40662203077401,New Castle,-75.64801066352037,39.580963234225166
2020,28123,26045,865,Scott,Eaton,Scott,-89.5377826515253,32.40662203077401,Eaton,-84.83760824188984,42.59595495545084
2020,28059,21165,232,Jackson,Menifee,Jackson,-88.63545056638375,30.53462134585008,Menifee,-83.5988885325422,37.941704173461325
2020,28059,38071,264,Jackson,Ramsey,Jackson,-88.63545056638375,30.53462134585008,Ramsey,-98.72005286244874,48.268948091418636
2020,32031,28059,843,Washoe,Jackson,Washoe,-119.66458033897543,40.65692051993312,Jackson,-88.63545056638375,30.53462134585008
2020,12035,28059,643,Flagler,Jackson,Flagler,-81.31351968342565,29.461474993433246,Jackson,-88.63545056638375,30.53462134585008
2020,72101,28059,632,Morovis,Jackson,Morovis,-66.42027692812601,18.317592287487923,Jackson,-88.63545056638375,30.53462134585008
2020,28103,37057,683,Noxubee,Davidson,Noxubee,-88.56980776150205,33.110203159683806,Davidson,-80.21262439319538,35.79258023070278
2020,23019,28103,941,Penobscot,Noxubee,Penobscot,-68.65081864631128,45.39709984224713,Noxubee,-88.56980776150205,33.110203159683806
2020,28103,01027,137,Noxubee,Clay,Noxubee,-88.56980776150205,33.110203159683806,Clay,-85.86079176452617,33.268841718306
